$GPGGA,082327.00,6247.32927,N,02249.35779,E,1,05,1.73,41.4,M,20.7,M,,*6C
$GPGSA,A,3,32,31,12,21,22,,,,,,,,2.85,1.73,2.27*0C
$GPGSV,2,1,05,12,14,008,53,21,28,158,38,22,77,159,35,31,30,099,44*73
$GPGSV,2,2,05,32,25,056,50*4C
$GPGLL,6247.32927,N,02249.35779,E,082327.00,A,A*6D
$GPZDA,082327.00,11,11,2020,00,00*6A
$GPRMC,082328.00,A,6247.32943,N,02249.35805,E,0.005,,111120,,,A*7A
$GPVTG,,T,,M,0.005,N,0.009,K,A*2F
$GPGGA,082328.00,6247.32943,N,02249.35805,E,1,05,1.73,41.8,M,20.7,M,,*69
$GPGSA,A,3,32,31,12,21,22,,,,,,,,2.85,1.73,2.27*0C
$GPGSV,2,1,05,12,14,008,53,21,28,158,38,22,77,159,35,31,30,099,44*73
$GPGSV,2,2,05,32,25,056,50*4C
$GPGLL,6247.32943,N,02249.35805,E,082328.00,A,A*64
$GPZDA,082328.00,11,11,2020,00,00*65
$GPRMC,082329.00,A,6247.32959,N,02249.35831,E,0.005,,111120,,,A*77
$GPVTG,,T,,M,0.005,N,0.008,K,A*2E
$GPGGA,082329.00,6247.32959,N,02249.35831,E,1,05,1.73,42.2,M,20.7,M,,*6D
$GPGSA,A,3,32,31,12,21,22,,,,,,,,2.85,1.73,2.27*0C
$GPGSV,2,1,05,12,14,008,53,21,28,158,38,22,77,159,35,31,30,099,44*73
$GPGSV,2,2,05,32,25,056,50*4C
$GPGLL,6247.32959,N,02249.35831,E,082329.00,A,A*69
$GPZDA,082329.00,11,11,2020,00,00*64
$GPRMC,082330.00,A,6247.32974,N,02249.35858,E,0.006,,111120,,,A*7C
$GPVTG,,T,,M,0.006,N,0.011,K,A*25
$GPGGA,082330.00,6247.32974,N,02249.35858,E,1,05,1.73,42.5,M,20.7,M,,*62
$GPGSA,A,3,32,31,12,21,22,,,,,,,,2.85,1.73,2.27*0C
$GPGSV,2,1,05,12,14,008,53,21,28,158,38,22,77,159,35,31,30,099,44*73
$GPGSV,2,2,05,32,25,056,50*4C
$GPGLL,6247.32974,N,02249.35858,E,082330.00,A,A*61
$GPZDA,082330.00,11,11,2020,00,00*6C
$GPRMC,082331.00,A,6247.33004,N,02249.35913,E,0.006,,111120,,,A*7C
$GPVTG,,T,,M,0.006,N,0.011,K,A*25
$GPGGA,082331.00,6247.33004,N,02249.35913,E,1,05,1.73,43.3,M,20.7,M,,*65
$GPGSA,A,3,32,31,12,21,22,,,,,,,,2.85,1.73,2.26*0D
$GPGSV,2,1,05,12,14,008,53,21,28,158,39,22,77,159,35,31,30,099,44*72
$GPGSV,2,2,05,32,25,056,49*44
$GPGLL,6247.33004,N,02249.35913,E,082331.00,A,A*61
$GPZDA,082331.00,11,11,2020,00,00*6D
$GPRMC,082332.00,A,6247.33030,N,02249.35963,E,0.003,,111120,,,A*7A
$GPVTG,,T,,M,0.003,N,0.006,K,A*26
$GPGGA,082332.00,6247.33030,N,02249.35963,E,1,05,1.73,43.9,M,20.7,M,,*6C
$GPGSA,A,3,32,31,12,21,22,,,,,,,,2.85,1.73,2.26*0D
$GPGSV,2,1,05,12,14,008,53,21,28,158,39,22,77,159,36,31,30,099,44*71
$GPGSV,2,2,05,32,25,056,50*4C
$GPGLL,6247.33030,N,02249.35963,E,082332.00,A,A*62
$GPZDA,082332.00,11,11,2020,00,00*6E
$GPRMC,082333.00,A,6247.33053,N,02249.36007,E,0.001,,111120,,,A*74
$GPVTG,,T,,M,0.001,N,0.002,K,A*20
$GPGGA,082333.00,6247.33053,N,02249.36007,E,1,05,1.73,44.4,M,20.7,M,,*6A
$GPGSA,A,3,32,31,12,21,22,,,,,,,,2.85,1.73,2.26*0D
$GPGSV,2,1,06,08,,,29,12,14,008,53,21,28,158,39,22,77,159,36*40
$GPGSV,2,2,06,31,30,099,44,32,25,056,50*7E
$GPGLL,6247.33053,N,02249.36007,E,082333.00,A,A*6E
$GPZDA,082333.00,11,11,2020,00,00*6F
$GPRMC,082334.00,A,6247.33072,N,02249.36044,E,0.002,,111120,,,A*74
$GPVTG,,T,,M,0.002,N,0.003,K,A*22
$GPGGA,082334.00,6247.33072,N,02249.36044,E,1,05,1.73,44.8,M,20.7,M,,*65
$GPGSA,A,3,32,31,12,21,22,,,,,,,,2.85,1.73,2.26*0D
$GPGSV,2,1,05,12,14,008,53,21,28,158,39,22,77,159,36,31,30,099,45*70
$GPGSV,2,2,05,32,25,056,50*4C
$GPGLL,6247.33072,N,02249.36044,E,082334.00,A,A*6D
$GPZDA,082334.00,11,11,2020,00,00*68
$GPRMC,082335.00,A,6247.33089,N,02249.36071,E,0.002,,111120,,,A*77
$GPVTG,,T,,M,0.002,N,0.003,K,A*22
$GPGGA,082335.00,6247.33089,N,02249.36071,E,1,05,1.73,45.2,M,20.7,M,,*6D
$GPGSA,A,3,32,31,12,21,22,,,,,,,,2.85,1.73,2.26*0D
$GPGSV,2,1,05,12,14,008,53,21,28,158,39,22,77,159,35,31,30,099,45*73
$GPGSV,2,2,05,32,25,056,50*4C
$GPGLL,6247.33089,N,02249.36071,E,082335.00,A,A*6E
$GPZDA,082335.00,11,11,2020,00,00*69
$GPRMC,082336.00,A,6247.33104,N,02249.36094,E,0.001,,111120,,,A*78
$GPVTG,,T,,M,0.001,N,0.001,K,A*23
$GPGGA,082336.00,6247.33104,N,02249.36094,E,1,05,1.73,45.5,M,20.7,M,,*66
$GPGSA,A,3,32,31,12,21,22,,,,,,,,2.85,1.73,2.26*0D
$GPGSV,2,1,05,12,14,008,53,21,28,158,39,22,77,159,35,31,30,099,45*73
$GPGSV,2,2,05,32,25,056,50*4C
$GPGLL,6247.33104,N,02249.36094,E,082336.00,A,A*62
$GPZDA,082336.00,11,11,2020,00,00*6A
$GPRMC,082337.00,A,6247.33117,N,02249.36106,E,0.002,,111120,,,A*72
$GPVTG,,T,,M,0.002,N,0.004,K,A*25
$GPGGA,082337.00,6247.33117,N,02249.36106,E,1,05,1.73,45.8,M,20.7,M,,*62
$GPGSA,A,3,32,31,12,21,22,,,,,,,,2.85,1.73,2.26*0D
$GPGSV,2,1,05,12,14,008,53,21,28,158,39,22,77,159,35,31,30,099,45*73
$GPGSV,2,2,05,32,25,056,50*4C
$GPGLL,6247.33117,N,02249.36106,E,082337.00,A,A*6B
$GPZDA,082337.00,11,11,2020,00,00*6B
$GPRMC,082338.00,A,6247.33151,N,02249.36153,E,0.004,,111120,,,A*79
$GPVTG,,T,,M,0.004,N,0.008,K,A*2F
$GPGGA,082338.00,6247.33151,N,02249.36153,E,1,05,1.73,46.7,M,20.7,M,,*63
$GPGSA,A,3,32,31,12,21,22,,,,,,,,2.85,1.73,2.26*0D
$GPGSV,2,1,06,12,14,008,53,15,,,33,21,28,158,40,22,77,159,35*4A
$GPGSV,2,2,06,31,30,099,45,32,25,056,50*7F
$GPGLL,6247.33151,N,02249.36153,E,082338.00,A,A*66
$GPZDA,082338.00,11,11,2020,00,00*64
$GPRMC,082339.00,A,6247.33175,N,02249.36182,E,0.002,,111120,,,A*74
$GPVTG,,T,,M,0.002,N,0.004,K,A*25
$GPGGA,082339.00,6247.33175,N,02249.36182,E,1,05,1.73,47.4,M,20.7,M,,*6A
$GPGSA,A,3,32,31,12,21,22,,,,,,,,2.85,1.73,2.26*0D
$GPGSV,2,1,05,12,14,008,53,21,28,158,40,22,77,159,34,31,30,099,45*7C
$GPGSV,2,2,05,32,25,056,50*4C
$GPGLL,6247.33175,N,02249.36182,E,082339.00,A,A*6D
$GPZDA,082339.00,11,11,2020,00,00*65
$GPRMC,082340.00,A,6247.33195,N,02249.36202,E,0.004,,111120,,,A*79
$GPVTG,,T,,M,0.004,N,0.008,K,A*2F
$GPGGA,082340.00,6247.33195,N,02249.36202,E,1,05,1.73,48.0,M,20.7,M,,*6A
$GPGSA,A,3,32,31,12,21,22,,,,,,,,2.85,1.73,2.26*0D
$GPGSV,2,1,05,12,14,008,53,21,28,158,40,22,77,159,34,31,30,099,45*7C
$GPGSV,2,2,05,32,25,056,50*4C
$GPGLL,6247.33195,N,02249.36202,E,082340.00,A,A*66
$GPZDA,082340.00,11,11,2020,00,00*6B
$GPRMC,082341.00,A,6247.33211,N,02249.36212,E,0.005,,111120,,,A*77
$GPVTG,,T,,M,0.005,N,0.010,K,A*27
$GPGGA,082341.00,6247.33211,N,02249.36212,E,1,05,1.73,48.5,M,20.7,M,,*60
$GPGSA,A,3,32,31,12,21,22,,,,,,,,2.85,1.73,2.26*0D
$GPGSV,2,1,05,12,14,008,53,21,28,158,40,22,77,159,34,31,30,099,45*7C
$GPGSV,2,2,05,32,25,056,50*4C
$GPGLL,6247.33211,N,02249.36212,E,082341.00,A,A*69
$GPZDA,082341.00,11,11,2020,00,00*6A
$GPRMC,082342.00,A,6247.33223,N,02249.36215,E,0.007,,111120,,,A*70
$GPVTG,,T,,M,0.007,N,0.013,K,A*26
$GPGGA,082342.00,6247.33223,N,02249.36215,E,1,05,1.73,48.9,M,20.7,M,,*69
$GPGSA,A,3,32,31,12,21,22,,,,,,,,2.85,1.73,2.26*0D
$GPGSV,2,1,05,12,14,008,53,21,28,158,40,22,77,159,34,31,30,099,45*7C
$GPGSV,2,2,05,32,25,056,50*4C
$GPGLL,6247.33223,N,02249.36215,E,082342.00,A,A*6C
$GPZDA,082342.00,11,11,2020,00,00*69
$GPRMC,082343.00,A,6247.33233,N,02249.36216,E,0.010,,111120,,,A*75
$GPVTG,,T,,M,0.010,N,0.018,K,A*2B
$GPGGA,082343.00,6247.33233,N,02249.36216,E,1,05,1.73,49.2,M,20.7,M,,*60
$GPGSA,A,3,32,31,12,21,22,,,,,,,,2.85,1.73,2.26*0D
$GPGSV,2,1,05,12,14,008,53,21,28,158,40,22,77,159,34,31,30,099,45*7C
$GPGSV,2,2,05,32,25,056,50*4C
$GPGLL,6247.33233,N,02249.36216,E,082343.00,A,A*6F
$GPZDA,082343.00,11,11,2020,00,00*68
$GPRMC,082344.00,A,6247.33241,N,02249.36214,E,0.013,,111120,,,A*76
$GPVTG,,T,,M,0.013,N,0.025,K,A*26
$GPGGA,082344.00,6247.33241,N,02249.36214,E,1,05,1.73,49.5,M,20.7,M,,*67
$GPGSA,A,3,32,31,12,21,22,,,,,,,,2.85,1.73,2.26*0D
$GPGSV,2,1,07,01,,,32,07,,,34,12,14,008,53,21,28,158,40*74
$GPGSV,2,2,07,22,77,159,34,31,30,099,45,32,25,056,50*44
$GPGLL,6247.33241,N,02249.36214,E,082344.00,A,A*6F
$GPZDA,082344.00,11,11,2020,00,00*6F
$GPRMC,082345.00,A,6247.33248,N,02249.36212,E,0.011,,111120,,,A*7A
$GPVTG,,T,,M,0.011,N,0.021,K,A*20
$GPGGA,082345.00,6247.33248,N,02249.36212,E,1,05,1.73,49.8,M,20.7,M,,*64
$GPGSA,A,3,32,31,12,21,22,,,,,,,,2.85,1.73,2.26*0D
$GPGSV,2,1,07,01,,,31,07,,,33,12,14,008,53,21,28,158,40*70
$GPGSV,2,2,07,22,77,159,34,31,30,099,45,32,25,056,50*44
$GPGLL,6247.33248,N,02249.36212,E,082345.00,A,A*61
$GPZDA,082345.00,11,11,2020,00,00*6E
$GPRMC,082346.00,A,6247.33255,N,02249.36208,E,0.011,,111120,,,A*7E
$GPVTG,,T,,M,0.011,N,0.021,K,A*20
$GPGGA,082346.00,6247.33255,N,02249.36208,E,1,05,1.73,50.1,M,20.7,M,,*61
$GPGSA,A,3,32,31,12,21,22,,,,,,,,2.85,1.73,2.26*0D
$GPGSV,2,1,06,01,,,31,12,14,008,53,21,28,158,40,22,77,159,33*4B
$GPGSV,2,2,06,31,30,099,45,32,25,056,50*7F
$GPGLL,6247.33255,N,02249.36208,E,082346.00,A,A*65
$GPZDA,082346.00,11,11,2020,00,00*6D
$GPRMC,082347.00,A,6247.33267,N,02249.36216,E,0.013,,111120,,,A*73
$GPVTG,,T,,M,0.013,N,0.025,K,A*26
$GPGGA,082347.00,6247.33267,N,02249.36216,E,1,05,1.73,50.6,M,20.7,M,,*69
$GPGSA,A,3,32,31,12,21,22,,,,,,,,2.85,1.73,2.26*0D
$GPGSV,2,1,06,01,,,31,12,14,008,53,21,28,158,41,22,77,159,33*4A
$GPGSV,2,2,06,31,30,099,45,32,25,056,50*7F
$GPGLL,6247.33267,N,02249.36216,E,082347.00,A,A*6A
$GPZDA,082347.00,11,11,2020,00,00*6C
$GPRMC,082348.00,A,6247.33270,N,02249.36206,E,0.013,,111120,,,A*7B
$GPVTG,,T,,M,0.013,N,0.025,K,A*26
$GPGGA,082348.00,6247.33270,N,02249.36206,E,1,05,1.73,50.8,M,20.7,M,,*6F
$GPGSA,A,3,32,31,12,21,22,,,,,,,,2.85,1.73,2.26*0D
$GPGSV,2,1,06,01,,,31,12,14,008,53,21,28,158,40,22,77,159,33*4B
$GPGSV,2,2,06,31,30,099,46,32,25,056,50*7C
$GPGLL,6247.33270,N,02249.36206,E,082348.00,A,A*62
$GPZDA,082348.00,11,11,2020,00,00*63
$GPRMC,082349.00,A,6247.33273,N,02249.36195,E,0.012,,111120,,,A*71
$GPVTG,,T,,M,0.012,N,0.022,K,A*20
$GPGGA,082349.00,6247.33273,N,02249.36195,E,1,05,1.73,50.9,M,20.7,M,,*65
$GPGSA,A,3,32,31,12,21,22,,,,,,,,2.85,1.73,2.26*0D
$GPGSV,2,1,06,01,,,31,12,14,008,53,21,28,158,40,22,77,159,33*4B
$GPGSV,2,2,06,31,30,099,46,32,25,056,50*7C
$GPGLL,6247.33273,N,02249.36195,E,082349.00,A,A*69
$GPZDA,082349.00,11,11,2020,00,00*62
$GPRMC,082350.00,A,6247.33275,N,02249.36184,E,0.012,,111120,,,A*7F
$GPVTG,,T,,M,0.012,N,0.023,K,A*21
$GPGGA,082350.00,6247.33275,N,02249.36184,E,1,05,1.73,51.1,M,20.7,M,,*62
$GPGSA,A,3,32,31,12,21,22,,,,,,,,2.85,1.73,2.26*0D
$GPGSV,2,1,06,01,,,32,12,14,008,53,21,28,158,40,22,77,159,34*4F
$GPGSV,2,2,06,31,30,099,46,32,25,056,50*7C
$GPGLL,6247.33275,N,02249.36184,E,082350.00,A,A*67
$GPZDA,082350.00,11,11,2020,00,00*6A
$GPRMC,082351.00,A,6247.33277,N,02249.36173,E,0.013,,111120,,,A*75
$GPVTG,,T,,M,0.013,N,0.025,K,A*26
$GPGGA,082351.00,6247.33277,N,02249.36173,E,1,05,1.73,51.3,M,20.7,M,,*6B
$GPGSA,A,3,32,31,12,21,22,,,,,,,,2.85,1.73,2.26*0D
$GPGSV,2,1,06,01,,,32,12,14,008,53,21,28,158,40,22,77,159,34*4F
$GPGSV,2,2,06,31,30,099,45,32,25,056,50*7F
$GPGLL,6247.33277,N,02249.36173,E,082351.00,A,A*6C
$GPZDA,082351.00,11,11,2020,00,00*6B
$GPRMC,082352.00,A,6247.33283,N,02249.36168,E,0.016,,111120,,,A*72
$GPVTG,,T,,M,0.016,N,0.030,K,A*27
$GPGGA,082352.00,6247.33283,N,02249.36168,E,1,05,1.73,51.5,M,20.7,M,,*6F
$GPGSA,A,3,32,31,12,21,22,,,,,,,,2.84,1.73,2.26*0C
$GPGSV,2,1,07,01,,,32,07,,,33,12,14,008,53,21,28,158,41*72
$GPGSV,2,2,07,22,77,159,34,31,30,099,45,32,25,056,49*4C
$GPGLL,6247.33283,N,02249.36168,E,082352.00,A,A*6E
$GPZDA,082352.00,11,11,2020,00,00*68
$GPRMC,082353.00,A,6247.33285,N,02249.36158,E,0.013,,111120,,,A*73
$GPVTG,,T,,M,0.013,N,0.024,K,A*27
$GPGGA,082353.00,6247.33285,N,02249.36158,E,1,05,1.73,51.7,M,20.7,M,,*69
$GPGSA,A,3,32,31,12,21,22,,,,,,,,2.84,1.73,2.26*0C
$GPGSV,2,1,07,01,,,32,09,,,34,12,14,008,53,21,28,158,41*7B
$GPGSV,2,2,07,22,77,159,34,31,30,099,45,32,25,056,50*44
$GPGLL,6247.33285,N,02249.36158,E,082353.00,A,A*6A
$GPZDA,082353.00,11,11,2020,00,00*69
$GPRMC,082354.00,A,6247.33286,N,02249.36146,E,0.015,,111120,,,A*7E
$GPVTG,,T,,M,0.015,N,0.027,K,A*22
$GPGGA,082354.00,6247.33286,N,02249.36146,E,1,05,1.73,51.9,M,20.7,M,,*6C
$GPGSA,A,3,32,31,12,21,22,,,,,,,,2.84,1.73,2.26*0C
$GPGSV,2,1,06,01,,,31,12,14,008,53,21,28,158,41,22,77,159,34*4D
$GPGSV,2,2,06,31,30,099,45,32,25,056,49*77
$GPGLL,6247.33286,N,02249.36146,E,082354.00,A,A*61
$GPZDA,082354.00,11,11,2020,00,00*6E
$GPRMC,082355.00,A,6247.33284,N,02249.36132,E,0.015,,111120,,,A*7E
$GPVTG,,T,,M,0.015,N,0.028,K,A*2D
$GPGGA,082355.00,6247.33284,N,02249.36132,E,1,05,1.73,51.9,M,20.7,M,,*6C
$GPGSA,A,3,32,31,12,21,22,,,,,,,,2.84,1.73,2.26*0C
$GPGSV,2,1,07,01,,,31,12,14,008,53,16,,,34,21,28,158,41*76
$GPGSV,2,2,07,22,77,159,33,31,30,099,45,32,25,056,50*43
$GPGLL,6247.33284,N,02249.36132,E,082355.00,A,A*61
$GPZDA,082355.00,11,11,2020,00,00*6F
$GPRMC,082356.00,A,6247.33282,N,02249.36118,E,0.016,,111120,,,A*70
$GPVTG,,T,,M,0.016,N,0.030,K,A*27
$GPGGA,082356.00,6247.33282,N,02249.36118,E,1,05,1.73,51.9,M,20.7,M,,*61
$GPGSA,A,3,32,31,12,21,22,,,,,,,,2.84,1.73,2.26*0C
$GPGSV,2,1,06,01,,,31,12,14,008,53,21,28,158,41,22,77,159,33*4A
$GPGSV,2,2,06,31,30,099,45,32,25,056,49*77
$GPGLL,6247.33282,N,02249.36118,E,082356.00,A,A*6C
$GPZDA,082356.00,11,11,2020,00,00*6C
$GPRMC,082357.00,A,6247.33280,N,02249.36107,E,0.016,,111120,,,A*7D
$GPVTG,,T,,M,0.016,N,0.029,K,A*2F
$GPGGA,082357.00,6247.33280,N,02249.36107,E,1,05,1.73,52.0,M,20.7,M,,*66
$GPGSA,A,3,32,31,12,21,22,,,,,,,,2.84,1.73,2.26*0C
$GPGSV,2,1,06,01,,,30,12,14,008,53,21,28,158,41,22,77,159,33*4B
$GPGSV,2,2,06,31,30,099,44,32,25,056,49*76
$GPGLL,6247.33280,N,02249.36107,E,082357.00,A,A*61
$GPZDA,082357.00,11,11,2020,00,00*6D
$GPRMC,082358.00,A,6247.33280,N,02249.36098,E,0.014,,111120,,,A*77
$GPVTG,,T,,M,0.014,N,0.026,K,A*22
$GPGGA,082358.00,6247.33280,N,02249.36098,E,1,05,1.73,52.0,M,20.7,M,,*6E
$GPGSA,A,3,32,31,12,21,22,,,,,,,,2.84,1.73,2.25*0F
$GPGSV,2,1,07,01,,,30,04,,,33,12,14,008,53,21,28,158,41*73
$GPGSV,2,2,07,22,77,159,33,31,30,099,44,32,25,056,49*4A
$GPGLL,6247.33280,N,02249.36098,E,082358.00,A,A*69
$GPZDA,082358.00,11,11,2020,00,00*62
$GPRMC,082359.00,A,6247.33279,N,02249.36090,E,0.017,,111120,,,A*7B
$GPVTG,,T,,M,0.017,N,0.032,K,A*24
$GPGGA,082359.00,6247.33279,N,02249.36090,E,1,05,1.73,52.1,M,20.7,M,,*60
$GPGSA,A,3,32,31,12,21,22,,,,,,,,2.84,1.73,2.25*0F
$GPGSV,2,1,06,01,,,30,12,14,008,53,21,28,158,41,22,77,159,33*4B
$GPGSV,2,2,06,31,30,099,44,32,25,056,49*76
$GPGLL,6247.33279,N,02249.36090,E,082359.00,A,A*66
$GPZDA,082359.00,11,11,2020,00,00*63
$GPRMC,082400.00,A,6247.33279,N,02249.36085,E,0.016,,111120,,,A*75
$GPVTG,,T,,M,0.016,N,0.030,K,A*27
$GPGGA,082400.00,6247.33279,N,02249.36085,E,1,05,1.73,52.3,M,20.7,M,,*6D
$GPGSA,A,3,32,31,12,21,22,,,,,,,,2.84,1.73,2.25*0F
$GPGSV,2,1,07,01,,,30,07,,,33,12,14,008,53,21,28,158,41*70
$GPGSV,2,2,07,22,77,159,33,31,30,099,44,32,25,056,49*4A
$GPGLL,6247.33279,N,02249.36085,E,082400.00,A,A*69
$GPZDA,082400.00,11,11,2020,00,00*68
$GPRMC,082401.00,A,6247.33277,N,02249.36081,E,0.017,,111120,,,A*7F
$GPVTG,,T,,M,0.017,N,0.032,K,A*24
$GPGGA,082401.00,6247.33277,N,02249.36081,E,1,05,1.73,52.4,M,20.7,M,,*61
$GPGSA,A,3,32,31,12,21,22,,,,,,,,2.84,1.73,2.25*0F
$GPGSV,2,1,07,01,,,31,03,,,33,12,14,008,53,21,28,158,41*75
$GPGSV,2,2,07,22,77,159,33,31,30,099,44,32,25,056,49*4A
$GPGLL,6247.33277,N,02249.36081,E,082401.00,A,A*62
$GPZDA,082401.00,11,11,2020,00,00*69
$GPRMC,082402.00,A,6247.33276,N,02249.36078,E,0.015,,111120,,,A*79
$GPVTG,,T,,M,0.015,N,0.028,K,A*2D
$GPGGA,082402.00,6247.33276,N,02249.36078,E,1,05,1.73,52.5,M,20.7,M,,*64
$GPGSA,A,3,32,31,12,21,22,,,,,,,,2.84,1.73,2.25*0F
$GPGSV,2,1,06,01,,,31,12,14,008,53,21,28,158,41,22,77,159,33*4A
$GPGSV,2,2,06,31,30,099,44,32,25,056,49*76
$GPGLL,6247.33276,N,02249.36078,E,082402.00,A,A*66
$GPZDA,082402.00,11,11,2020,00,00*6A
$GPRMC,082403.00,A,6247.33275,N,02249.36075,E,0.015,,111120,,,A*76
$GPVTG,,T,,M,0.015,N,0.028,K,A*2D
$GPGGA,082403.00,6247.33275,N,02249.36075,E,1,05,1.73,52.6,M,20.7,M,,*68
$GPGSA,A,3,32,31,12,21,22,,,,,,,,2.84,1.73,2.25*0F
$GPGSV,2,1,06,01,,,30,12,14,008,53,21,28,158,40,22,77,159,33*4A
$GPGSV,2,2,06,31,30,099,44,32,25,056,49*76
$GPGLL,6247.33275,N,02249.36075,E,082403.00,A,A*69
$GPZDA,082403.00,11,11,2020,00,00*6B
$GPRMC,082404.00,A,6247.33274,N,02249.36071,E,0.013,,111120,,,A*72
$GPVTG,,T,,M,0.013,N,0.024,K,A*27
$GPGGA,082404.00,6247.33274,N,02249.36071,E,1,05,1.73,52.8,M,20.7,M,,*64
$GPGSA,A,3,32,31,12,21,22,,,,,,,,2.84,1.73,2.25*0F
$GPGSV,2,1,07,01,,,29,02,,,33,12,14,008,53,21,28,158,40*7C
$GPGSV,2,2,07,22,77,159,33,31,30,099,43,32,25,056,49*4D
$GPGLL,6247.33274,N,02249.36071,E,082404.00,A,A*6B
$GPZDA,082404.00,11,11,2020,00,00*6C
$GPRMC,082405.00,A,6247.33272,N,02249.36065,E,0.012,,111120,,,A*71
$GPVTG,,T,,M,0.012,N,0.023,K,A*21
$GPGGA,082405.00,6247.33272,N,02249.36065,E,1,05,1.73,52.8,M,20.7,M,,*66
$GPGSA,A,3,32,31,12,21,22,,,,,,,,2.84,1.73,2.25*0F
$GPGSV,2,1,06,01,,,29,12,14,008,53,21,28,158,40,22,77,159,32*43
$GPGSV,2,2,06,31,30,099,43,32,25,056,48*70
$GPGLL,6247.33272,N,02249.36065,E,082405.00,A,A*69
$GPZDA,082405.00,11,11,2020,00,00*6D
$GPRMC,082406.00,A,6247.33272,N,02249.36059,E,0.010,,111120,,,A*7F
$GPVTG,,T,,M,0.010,N,0.018,K,A*2B
$GPGGA,082406.00,6247.33272,N,02249.36059,E,1,05,1.73,52.9,M,20.7,M,,*6B
$GPGSA,A,3,32,31,12,21,22,,,,,,,,2.84,1.73,2.25*0F
$GPGSV,2,1,06,01,,,28,12,14,008,53,21,28,158,40,22,77,159,32*42
$GPGSV,2,2,06,31,30,099,43,32,25,056,48*70
$GPGLL,6247.33272,N,02249.36059,E,082406.00,A,A*65
$GPZDA,082406.00,11,11,2020,00,00*6E
$GPRMC,082407.00,A,6247.33271,N,02249.36056,E,0.006,,111120,,,A*75
$GPVTG,,T,,M,0.006,N,0.011,K,A*25
$GPGGA,082407.00,6247.33271,N,02249.36056,E,1,05,1.73,53.0,M,20.7,M,,*6E
$GPGSA,A,3,32,31,12,21,22,,,,,,,,2.84,1.73,2.25*0F
$GPGSV,2,1,06,01,,,28,12,14,008,53,21,28,158,40,22,77,159,31*41
$GPGSV,2,2,06,31,30,099,43,32,25,056,48*70
$GPGLL,6247.33271,N,02249.36056,E,082407.00,A,A*68
$GPZDA,082407.00,11,11,2020,00,00*6F
$GPRMC,082408.00,A,6247.33270,N,02249.36052,E,0.008,,111120,,,A*71
$GPVTG,,T,,M,0.008,N,0.016,K,A*2C
$GPGGA,082408.00,6247.33270,N,02249.36052,E,1,05,1.73,53.1,M,20.7,M,,*65
$GPGSA,A,3,32,31,12,21,22,,,,,,,,2.84,1.73,2.25*0F
$GPGSV,3,1,09,01,,,27,05,,,34,06,,,33,08,,,33*7A
$GPGSV,3,2,09,12,14,008,53,21,28,158,40,22,77,159,31,31,30,099,43*71
$GPGSV,3,3,09,32,25,056,48*49
$GPGLL,6247.33270,N,02249.36052,E,082408.00,A,A*62
$GPZDA,082408.00,11,11,2020,00,00*60
$GPRMC,082409.00,A,6247.33270,N,02249.36052,E,0.007,,111120,,,A*7F
$GPVTG,,T,,M,0.007,N,0.013,K,A*26
$GPGGA,082409.00,6247.33270,N,02249.36052,E,1,05,1.73,53.2,M,20.7,M,,*67
$GPGSA,A,3,32,31,12,21,22,,,,,,,,2.84,1.73,2.25*0F
$GPGSV,2,1,07,01,,,27,08,,,34,12,14,008,53,21,28,158,40*7F
$GPGSV,2,2,07,22,77,159,31,31,30,099,43,32,25,056,48*4E
$GPGLL,6247.33270,N,02249.36052,E,082409.00,A,A*63
$GPZDA,082409.00,11,11,2020,00,00*61
$GPRMC,082410.00,A,6247.33269,N,02249.36049,E,0.005,,111120,,,A*77
$GPVTG,,T,,M,0.005,N,0.010,K,A*27
$GPGGA,082410.00,6247.33269,N,02249.36049,E,1,05,1.73,53.3,M,20.7,M,,*6C
$GPGSA,A,3,32,31,12,21,22,,,,,,,,2.84,1.73,2.25*0F
$GPGSV,2,1,07,01,,,28,02,,,30,12,14,008,53,21,28,158,40*7E
$GPGSV,2,2,07,22,77,159,31,31,30,099,43,32,25,056,48*4E
$GPGLL,6247.33269,N,02249.36049,E,082410.00,A,A*69
$GPZDA,082410.00,11,11,2020,00,00*69
$GPRMC,082411.00,A,6247.33268,N,02249.36046,E,0.005,,111120,,,A*78
$GPVTG,,T,,M,0.005,N,0.010,K,A*27
$GPGGA,082411.00,6247.33268,N,02249.36046,E,1,05,1.73,53.4,M,20.7,M,,*64
$GPGSA,A,3,32,31,12,21,22,,,,,,,,2.84,1.73,2.25*0F
$GPGSV,2,1,06,01,,,29,12,14,008,53,21,28,158,40,22,77,159,32*43
$GPGSV,2,2,06,31,30,099,43,32,25,056,48*70
$GPGLL,6247.33268,N,02249.36046,E,082411.00,A,A*66
$GPZDA,082411.00,11,11,2020,00,00*68
$GPRMC,082412.00,A,6247.33267,N,02249.36044,E,0.005,,111120,,,A*76
$GPVTG,,T,,M,0.005,N,0.010,K,A*27
$GPGGA,082412.00,6247.33267,N,02249.36044,E,1,05,1.73,53.5,M,20.7,M,,*6B
$GPGSA,A,3,32,31,12,21,22,,,,,,,,2.84,1.73,2.25*0F
$GPGSV,2,1,06,01,,,29,12,14,008,53,21,28,158,40,22,77,159,33*42
$GPGSV,2,2,06,31,30,099,44,32,25,056,48*77
$GPGLL,6247.33267,N,02249.36044,E,082412.00,A,A*68
$GPZDA,082412.00,11,11,2020,00,00*6B
$GPRMC,082413.00,A,6247.33265,N,02249.36041,E,0.008,,111120,,,A*7D
$GPVTG,,T,,M,0.008,N,0.014,K,A*2E
$GPGGA,082413.00,6247.33265,N,02249.36041,E,1,05,1.73,53.6,M,20.7,M,,*6E
$GPGSA,A,3,32,31,12,21,22,,,,,,,,2.84,1.73,2.25*0F
$GPGSV,2,1,06,01,,,29,12,14,008,53,21,28,158,40,22,77,159,33*42
$GPGSV,2,2,06,31,30,099,44,32,25,056,48*77
$GPGLL,6247.33265,N,02249.36041,E,082413.00,A,A*6E
$GPZDA,082413.00,11,11,2020,00,00*6A
$GPRMC,082414.00,A,6247.33263,N,02249.36040,E,0.007,,111120,,,A*72
$GPVTG,,T,,M,0.007,N,0.013,K,A*26
$GPGGA,082414.00,6247.33263,N,02249.36040,E,1,05,1.73,53.7,M,20.7,M,,*6F
$GPGSA,A,3,32,31,12,21,22,,,,,,,,2.84,1.73,2.25*0F
$GPGSV,2,1,06,01,,,29,12,14,008,53,21,28,158,40,22,77,159,34*45
$GPGSV,2,2,06,31,30,099,44,32,25,056,48*77
$GPGLL,6247.33263,N,02249.36040,E,082414.00,A,A*6E
$GPZDA,082414.00,11,11,2020,00,00*6D
$GPRMC,082415.00,A,6247.33262,N,02249.36039,E,0.005,,111120,,,A*7E
$GPVTG,,T,,M,0.005,N,0.010,K,A*27
$GPGGA,082415.00,6247.33262,N,02249.36039,E,1,05,1.73,53.8,M,20.7,M,,*6E
$GPGSA,A,3,32,31,12,21,22,,,,,,,,2.84,1.73,2.25*0F
$GPGSV,2,1,06,01,,,29,12,14,008,53,21,28,158,40,22,77,159,34*45
$GPGSV,2,2,06,31,30,099,44,32,25,056,48*77
$GPGLL,6247.33262,N,02249.36039,E,082415.00,A,A*60
$GPZDA,082415.00,11,11,2020,00,00*6C
$GPRMC,082416.00,A,6247.33262,N,02249.36038,E,0.003,,111120,,,A*7A
$GPVTG,,T,,M,0.003,N,0.006,K,A*26
$GPGGA,082416.00,6247.33262,N,02249.36038,E,1,05,1.73,53.9,M,20.7,M,,*6D
$GPGSA,A,3,32,31,12,21,22,,,,,,,,2.84,1.73,2.25*0F
$GPGSV,2,1,06,01,,,30,12,14,008,53,21,28,158,40,22,77,159,33*4A
$GPGSV,2,2,06,31,30,099,44,32,25,056,48*77
$GPGLL,6247.33262,N,02249.36038,E,082416.00,A,A*62
$GPZDA,082416.00,11,11,2020,00,00*6F
$GPRMC,082417.00,A,6247.33260,N,02249.36037,E,0.005,,111120,,,A*70
$GPVTG,,T,,M,0.005,N,0.009,K,A*2F
$GPGGA,082417.00,6247.33260,N,02249.36037,E,1,05,1.73,53.9,M,20.7,M,,*61
$GPGSA,A,3,32,31,12,21,22,,,,,,,,2.84,1.73,2.25*0F
$GPGSV,2,1,06,01,,,31,12,14,008,53,21,28,158,40,22,77,159,33*4B
$GPGSV,2,2,06,31,30,099,44,32,25,056,48*77
$GPGLL,6247.33260,N,02249.36037,E,082417.00,A,A*6E
$GPZDA,082417.00,11,11,2020,00,00*6E
$GPRMC,082418.00,A,6247.33259,N,02249.36038,E,0.003,,111120,,,A*7C
$GPVTG,,T,,M,0.003,N,0.005,K,A*25
$GPGGA,082418.00,6247.33259,N,02249.36038,E,1,05,1.73,54.0,M,20.7,M,,*65
$GPGSA,A,3,32,31,12,21,22,,,,,,,,2.84,1.73,2.25*0F
$GPGSV,2,1,06,01,,,30,12,14,008,53,21,28,158,40,22,77,159,32*4B
$GPGSV,2,2,06,31,30,099,44,32,25,056,48*77
$GPGLL,6247.33259,N,02249.36038,E,082418.00,A,A*64
$GPZDA,082418.00,11,11,2020,00,00*61
$GPRMC,082419.00,A,6247.33258,N,02249.36037,E,0.003,,111120,,,A*73
$GPVTG,,T,,M,0.003,N,0.005,K,A*25
$GPGGA,082419.00,6247.33258,N,02249.36037,E,1,05,1.73,54.0,M,20.7,M,,*6A
$GPGSA,A,3,32,31,12,21,22,,,,,,,,2.83,1.73,2.25*08
$GPGSV,2,1,06,01,,,30,12,14,008,53,21,28,158,39,22,77,159,32*45
$GPGSV,2,2,06,31,30,099,44,32,25,056,48*77
$GPGLL,6247.33258,N,02249.36037,E,082419.00,A,A*6B
$GPZDA,082419.00,11,11,2020,00,00*60
$GPRMC,082420.00,A,6247.33257,N,02249.36036,E,0.003,,111120,,,A*77
$GPVTG,,T,,M,0.003,N,0.006,K,A*26
$GPGGA,082420.00,6247.33257,N,02249.36036,E,1,05,1.73,54.0,M,20.7,M,,*6E
$GPGSA,A,3,32,31,12,21,22,,,,,,,,2.83,1.73,2.25*08
$GPGSV,2,1,06,01,,,30,12,14,008,53,21,28,158,39,22,77,159,33*44
$GPGSV,2,2,06,31,30,099,44,32,25,056,48*77
$GPGLL,6247.33257,N,02249.36036,E,082420.00,A,A*6F
$GPZDA,082420.00,11,11,2020,00,00*6A
$GPRMC,082421.00,A,6247.33256,N,02249.36035,E,0.004,,111120,,,A*73
$GPVTG,,T,,M,0.004,N,0.007,K,A*20
$GPGGA,082421.00,6247.33256,N,02249.36035,E,1,05,1.73,54.1,M,20.7,M,,*6C
$GPGSA,A,3,32,31,12,21,22,,,,,,,,2.83,1.73,2.25*08
$GPGSV,2,1,07,01,,,28,12,14,008,53,21,28,158,39,22,77,159,33*4C
$GPGSV,2,2,07,25,,,29,31,30,099,44,32,25,056,48*7A
$GPGLL,6247.33256,N,02249.36035,E,082421.00,A,A*6C
$GPZDA,082421.00,11,11,2020,00,00*6B
$GPRMC,082422.00,A,6247.33255,N,02249.36034,E,0.002,,111120,,,A*74
$GPVTG,,T,,M,0.002,N,0.004,K,A*25
$GPGGA,082422.00,6247.33255,N,02249.36034,E,1,05,1.73,54.1,M,20.7,M,,*6D
$GPGSA,A,3,32,31,12,21,22,,,,,,,,2.83,1.73,2.25*08
$GPGSV,2,1,06,01,,,28,12,14,008,53,21,28,158,39,22,77,159,34*4A
$GPGSV,2,2,06,31,30,099,44,32,25,056,48*77
$GPGLL,6247.33255,N,02249.36034,E,082422.00,A,A*6D
$GPZDA,082422.00,11,11,2020,00,00*68
$GPRMC,082423.00,A,6247.33254,N,02249.36034,E,0.002,,111120,,,A*74
$GPVTG,,T,,M,0.002,N,0.003,K,A*22
$GPGGA,082423.00,6247.33254,N,02249.36034,E,1,05,1.73,54.1,M,20.7,M,,*6D
$GPGSA,A,3,32,31,12,21,22,,,,,,,,2.83,1.73,2.25*08
$GPGSV,2,1,07,01,,,29,05,,,33,12,14,008,53,21,28,158,38*74
$GPGSV,2,2,07,22,77,159,34,31,30,099,44,32,25,056,48*4C
$GPGLL,6247.33254,N,02249.36034,E,082423.00,A,A*6D
$GPZDA,082423.00,11,11,2020,00,00*69
$GPRMC,082424.00,A,6247.33253,N,02249.36035,E,0.002,,111120,,,A*75
$GPVTG,,T,,M,0.002,N,0.003,K,A*22
$GPGGA,082424.00,6247.33253,N,02249.36035,E,1,05,1.73,54.1,M,20.7,M,,*6C
$GPGSA,A,3,32,31,12,21,22,,,,,,,,2.83,1.73,2.25*08
$GPGSV,2,1,06,01,,,29,12,14,008,53,21,28,158,38,22,77,159,34*4A
$GPGSV,2,2,06,31,30,099,44,32,25,056,48*77
$GPGLL,6247.33253,N,02249.36035,E,082424.00,A,A*6C
$GPZDA,082424.00,11,11,2020,00,00*6E
$GPRMC,082425.00,A,6247.33252,N,02249.36035,E,0.007,,111120,,,A*70
$GPVTG,,T,,M,0.007,N,0.013,K,A*26
$GPGGA,082425.00,6247.33252,N,02249.36035,E,1,05,1.73,54.1,M,20.7,M,,*6C
$GPGSA,A,3,32,31,12,21,22,,,,,,,,2.83,1.73,2.25*08
$GPGSV,2,1,07,01,,,27,10,,,33,12,14,008,53,21,28,158,38*7E
$GPGSV,2,2,07,22,77,159,35,31,30,099,44,32,25,056,48*4D
$GPGLL,6247.33252,N,02249.36035,E,082425.00,A,A*6C
$GPZDA,082425.00,11,11,2020,00,00*6F
$GPRMC,082426.00,A,6247.33251,N,02249.36032,E,0.007,,111120,,,A*77
$GPVTG,,T,,M,0.007,N,0.014,K,A*21
$GPGGA,082426.00,6247.33251,N,02249.36032,E,1,05,1.73,54.1,M,20.7,M,,*6B
$GPGSA,A,3,32,31,12,21,22,,,,,,,,2.83,1.73,2.24*09
$GPGSV,2,1,07,01,,,27,10,,,34,12,14,008,53,21,28,158,38*79
$GPGSV,2,2,07,22,77,159,35,31,30,099,44,32,25,056,48*4D
$GPGLL,6247.33251,N,02249.36032,E,082426.00,A,A*6B
$GPZDA,082426.00,11,11,2020,00,00*6C
$GPRMC,082427.00,A,6247.33250,N,02249.36031,E,0.008,,111120,,,A*7B
$GPVTG,,T,,M,0.008,N,0.015,K,A*2F
$GPGGA,082427.00,6247.33250,N,02249.36031,E,1,05,1.73,54.1,M,20.7,M,,*68
$GPGSA,A,3,32,31,12,21,22,,,,,,,,2.83,1.73,2.24*09
$GPGSV,2,1,06,01,52,170,29,12,14,008,53,21,28,158,37,22,77,159,35*75
$GPGSV,2,2,06,31,30,099,43,32,25,056,48*70
$GPGLL,6247.33250,N,02249.36031,E,082427.00,A,A*68
$GPZDA,082427.00,11,11,2020,00,00*6D
$GPRMC,082428.00,A,6247.33249,N,02249.36029,E,0.010,,111120,,,A*7C
$GPVTG,,T,,M,0.010,N,0.019,K,A*2A
$GPGGA,082428.00,6247.33249,N,02249.36029,E,1,06,1.65,54.0,M,20.7,M,,*63
$GPGSA,A,3,32,31,01,12,21,22,,,,,,,2.77,1.65,2.23*03
$GPGSV,2,1,06,01,52,170,29,12,14,008,53,21,28,158,37,22,76,157,34*7B
$GPGSV,2,2,06,31,30,099,44,32,25,056,48*77
$GPGLL,6247.33249,N,02249.36029,E,082428.00,A,A*66
$GPZDA,082428.00,11,11,2020,00,00*62
$GPRMC,082429.00,A,6247.33248,N,02249.36029,E,0.012,,111120,,,A*7E
$GPVTG,,T,,M,0.012,N,0.022,K,A*20
$GPGGA,082429.00,6247.33248,N,02249.36029,E,1,06,1.65,54.0,M,20.7,M,,*63
$GPGSA,A,3,32,31,01,12,21,22,,,,,,,2.77,1.65,2.23*03
$GPGSV,2,1,06,01,52,170,31,12,14,008,53,21,28,158,37,22,76,157,35*73
$GPGSV,2,2,06,31,30,099,44,32,25,056,48*77
$GPGLL,6247.33248,N,02249.36029,E,082429.00,A,A*66
$GPZDA,082429.00,11,11,2020,00,00*63
$GPRMC,082430.00,A,6247.33247,N,02249.36028,E,0.010,,111120,,,A*7A
$GPVTG,,T,,M,0.010,N,0.018,K,A*2B
$GPGGA,082430.00,6247.33247,N,02249.36028,E,1,06,1.65,53.9,M,20.7,M,,*6B
$GPGSA,A,3,32,31,01,12,21,22,,,,,,,2.77,1.65,2.23*03
$GPGSV,2,1,06,01,52,170,29,12,14,008,53,21,28,158,36,22,76,157,35*7B
$GPGSV,2,2,06,31,30,099,44,32,25,056,48*77
$GPGLL,6247.33247,N,02249.36028,E,082430.00,A,A*60
$GPZDA,082430.00,11,11,2020,00,00*6B
$GPRMC,082431.00,A,6247.33245,N,02249.36027,E,0.008,,111120,,,A*7F
$GPVTG,,T,,M,0.008,N,0.016,K,A*2C
$GPGGA,082431.00,6247.33245,N,02249.36027,E,1,06,1.65,53.9,M,20.7,M,,*67
$GPGSA,A,3,32,31,01,12,21,22,,,,,,,2.77,1.65,2.23*03
$GPGSV,2,1,06,01,52,170,29,12,14,008,53,21,28,158,35,22,76,157,35*78
$GPGSV,2,2,06,31,30,099,44,32,25,056,48*77
$GPGLL,6247.33245,N,02249.36027,E,082431.00,A,A*6C
$GPZDA,082431.00,11,11,2020,00,00*6A
$GPRMC,082432.00,A,6247.33244,N,02249.36026,E,0.008,,111120,,,A*7C
$GPVTG,,T,,M,0.008,N,0.016,K,A*2C
$GPGGA,082432.00,6247.33244,N,02249.36026,E,1,06,1.65,53.9,M,20.7,M,,*64
$GPGSA,A,3,32,31,01,12,21,22,,,,,,,2.77,1.65,2.23*03
$GPGSV,2,1,06,01,52,170,28,12,14,008,53,21,28,158,35,22,76,157,34*78
$GPGSV,2,2,06,31,30,099,44,32,25,056,48*77
$GPGLL,6247.33244,N,02249.36026,E,082432.00,A,A*6F
$GPZDA,082432.00,11,11,2020,00,00*69
$GPRMC,082433.00,A,6247.33243,N,02249.36024,E,0.011,,111120,,,A*70
$GPVTG,,T,,M,0.011,N,0.020,K,A*21
$GPGGA,082433.00,6247.33243,N,02249.36024,E,1,06,1.64,53.9,M,20.7,M,,*61
$GPGSA,A,3,32,31,01,12,21,22,,,,,,,2.77,1.64,2.23*02
$GPGSV,2,1,07,01,52,170,27,02,,,33,12,14,008,53,21,28,158,35*41
$GPGSV,2,2,07,22,76,157,34,31,30,099,44,32,25,056,48*43
$GPGLL,6247.33243,N,02249.36024,E,082433.00,A,A*6B
$GPZDA,082433.00,11,11,2020,00,00*68
$GPRMC,082434.00,A,6247.33242,N,02249.36022,E,0.012,,111120,,,A*73
$GPVTG,,T,,M,0.012,N,0.021,K,A*23
$GPGGA,082434.00,6247.33242,N,02249.36022,E,1,06,1.64,53.9,M,20.7,M,,*61
$GPGSA,A,3,32,31,01,12,21,22,,,,,,,2.77,1.64,2.23*02
$GPGSV,2,1,06,01,52,170,27,12,14,008,53,21,28,158,35,22,76,157,33*70
$GPGSV,2,2,06,31,30,099,45,32,25,056,48*76
$GPGLL,6247.33242,N,02249.36022,E,082434.00,A,A*6B
$GPZDA,082434.00,11,11,2020,00,00*6F
$GPRMC,082435.00,A,6247.33241,N,02249.36020,E,0.010,,111120,,,A*71
$GPVTG,,T,,M,0.010,N,0.019,K,A*2A
$GPGGA,082435.00,6247.33241,N,02249.36020,E,1,06,1.64,53.9,M,20.7,M,,*61
$GPGSA,A,3,32,31,01,12,21,22,,,,,,,2.77,1.64,2.23*02
$GPGSV,2,1,06,01,52,170,28,12,14,008,53,21,28,158,36,22,76,157,33*7C
$GPGSV,2,2,06,31,30,099,45,32,25,056,47*79
$GPGLL,6247.33241,N,02249.36020,E,082435.00,A,A*6B
$GPZDA,082435.00,11,11,2020,00,00*6E
$GPRMC,082436.00,A,6247.33240,N,02249.36018,E,0.011,,111120,,,A*79
$GPVTG,,T,,M,0.011,N,0.020,K,A*21
$GPGGA,082436.00,6247.33240,N,02249.36018,E,1,06,1.64,54.0,M,20.7,M,,*66
$GPGSA,A,3,32,31,01,12,21,22,,,,,,,2.77,1.64,2.23*02
$GPGSV,2,1,06,01,52,170,29,12,14,008,53,21,28,158,36,22,76,157,33*7D
$GPGSV,2,2,06,31,30,099,45,32,25,056,48*76
$GPGLL,6247.33240,N,02249.36018,E,082436.00,A,A*62
$GPZDA,082436.00,11,11,2020,00,00*6D
$GPRMC,082437.00,A,6247.33239,N,02249.36016,E,0.013,,111120,,,A*7A
$GPVTG,,T,,M,0.013,N,0.025,K,A*26
$GPGGA,082437.00,6247.33239,N,02249.36016,E,1,06,1.64,54.0,M,20.7,M,,*67
$GPGSA,A,3,32,31,01,12,21,22,,,,,,,2.77,1.64,2.23*02
$GPGSV,2,1,06,01,52,170,30,12,14,008,53,21,28,158,35,22,76,157,32*77
$GPGSV,2,2,06,31,31,099,45,32,25,056,48*77
$GPGLL,6247.33239,N,02249.36016,E,082437.00,A,A*63
$GPZDA,082437.00,11,11,2020,00,00*6C
$GPRMC,082438.00,A,6247.33237,N,02249.36013,E,0.015,,111120,,,A*78
$GPVTG,,T,,M,0.015,N,0.028,K,A*2D
$GPGGA,082438.00,6247.33237,N,02249.36013,E,1,06,1.64,54.0,M,20.7,M,,*63
$GPGSA,A,3,32,31,01,12,21,22,,,,,,,2.77,1.64,2.23*02
$GPGSV,2,1,07,01,52,170,30,12,14,008,53,21,28,158,35,22,76,157,33*77
$GPGSV,2,2,07,26,,,33,31,31,099,45,32,25,056,48*72
$GPGLL,6247.33237,N,02249.36013,E,082438.00,A,A*67
$GPZDA,082438.00,11,11,2020,00,00*63
$GPRMC,082439.00,A,6247.33236,N,02249.36010,E,0.012,,111120,,,A*7C
$GPVTG,,T,,M,0.012,N,0.022,K,A*20
$GPGGA,082439.00,6247.33236,N,02249.36010,E,1,06,1.64,54.0,M,20.7,M,,*60
$GPGSA,A,3,32,31,01,12,21,22,,,,,,,2.77,1.64,2.23*02
$GPGSV,2,1,07,01,52,170,29,12,14,008,53,21,28,158,35,22,76,157,34*78
$GPGSV,2,2,07,26,,,33,31,31,099,45,32,25,056,48*72
$GPGLL,6247.33236,N,02249.36010,E,082439.00,A,A*64
$GPZDA,082439.00,11,11,2020,00,00*62
$GPRMC,082440.00,A,6247.33235,N,02249.36006,E,0.012,,111120,,,A*76
$GPVTG,,T,,M,0.012,N,0.022,K,A*20
$GPGGA,082440.00,6247.33235,N,02249.36006,E,1,06,1.64,54.0,M,20.7,M,,*6A
$GPGSA,A,3,32,31,01,12,21,22,,,,,,,2.77,1.64,2.23*02
$GPGSV,2,1,06,01,52,170,30,12,14,008,53,21,28,158,36,22,76,157,34*72
$GPGSV,2,2,06,31,31,099,45,32,25,056,48*77
$GPGLL,6247.33235,N,02249.36006,E,082440.00,A,A*6E
$GPZDA,082440.00,11,11,2020,00,00*6C
$GPRMC,082441.00,A,6247.33233,N,02249.36002,E,0.012,,111120,,,A*75
$GPVTG,,T,,M,0.012,N,0.023,K,A*21
$GPGGA,082441.00,6247.33233,N,02249.36002,E,1,06,1.64,53.9,M,20.7,M,,*67
$GPGSA,A,3,32,31,01,12,21,22,,,,,,,2.77,1.64,2.23*02
$GPGSV,2,1,07,01,52,170,30,12,14,008,53,13,,,33,21,28,158,36*44
$GPGSV,2,2,07,22,76,157,35,31,31,099,45,32,25,056,48*42
$GPGLL,6247.33233,N,02249.36002,E,082441.00,A,A*6D
$GPZDA,082441.00,11,11,2020,00,00*6D
$GPRMC,082442.00,A,6247.33232,N,02249.35998,E,0.014,,111120,,,A*78
$GPVTG,,T,,M,0.014,N,0.026,K,A*22
$GPGGA,082442.00,6247.33232,N,02249.35998,E,1,06,1.64,53.9,M,20.7,M,,*6C
$GPGSA,A,3,32,31,01,12,21,22,,,,,,,2.77,1.64,2.23*02
$GPGSV,2,1,07,01,52,170,29,03,,,33,12,14,008,53,21,28,158,36*4D
$GPGSV,2,2,07,22,76,157,35,31,31,099,45,32,25,056,48*42
$GPGLL,6247.33232,N,02249.35998,E,082442.00,A,A*66
$GPZDA,082442.00,11,11,2020,00,00*6E
$GPRMC,082443.00,A,6247.33230,N,02249.35992,E,0.013,,111120,,,A*76
$GPVTG,,T,,M,0.013,N,0.024,K,A*27
$GPGGA,082443.00,6247.33230,N,02249.35992,E,1,06,1.64,53.8,M,20.7,M,,*64
$GPGSA,A,3,32,31,01,12,21,22,,,,,,,2.77,1.64,2.23*02
$GPGSV,2,1,06,01,52,170,28,12,14,008,53,21,28,158,35,22,76,157,36*7A
$GPGSV,2,2,06,31,31,099,45,32,25,056,49*76
$GPGLL,6247.33230,N,02249.35992,E,082443.00,A,A*6F
$GPZDA,082443.00,11,11,2020,00,00*6F
$GPRMC,082444.00,A,6247.33227,N,02249.35987,E,0.013,,111120,,,A*73
$GPVTG,,T,,M,0.013,N,0.025,K,A*26
$GPGGA,082444.00,6247.33227,N,02249.35987,E,1,06,1.64,53.6,M,20.7,M,,*6F
$GPGSA,A,3,32,31,01,12,21,22,,,,,,,2.77,1.64,2.23*02
$GPGSV,2,1,06,01,52,170,28,12,14,008,52,21,28,158,35,22,76,157,36*7B
$GPGSV,2,2,06,31,31,099,45,32,25,056,49*76
$GPGLL,6247.33227,N,02249.35987,E,082444.00,A,A*6A
$GPZDA,082444.00,11,11,2020,00,00*68
$GPRMC,082445.00,A,6247.33225,N,02249.35982,E,0.013,,111120,,,A*75
$GPVTG,,T,,M,0.013,N,0.024,K,A*27
$GPGGA,082445.00,6247.33225,N,02249.35982,E,1,06,1.64,53.5,M,20.7,M,,*6A
$GPGSA,A,3,32,31,01,12,21,22,,,,,,,2.77,1.64,2.23*02
$GPGSV,2,1,06,01,52,170,27,12,14,008,52,21,28,158,34,22,76,157,35*76
$GPGSV,2,2,06,31,31,099,45,32,25,056,49*76
$GPGLL,6247.33225,N,02249.35982,E,082445.00,A,A*6C
$GPZDA,082445.00,11,11,2020,00,00*69
$GPRMC,082446.00,A,6247.33223,N,02249.35974,E,0.016,,111120,,,A*7C
$GPVTG,,T,,M,0.016,N,0.030,K,A*27
$GPGGA,082446.00,6247.33223,N,02249.35974,E,1,06,1.64,53.4,M,20.7,M,,*67
$GPGSA,A,3,32,31,01,12,21,22,,,,,,,2.77,1.64,2.22*03
$GPGSV,2,1,06,01,52,170,26,12,14,008,52,21,28,158,34,22,76,157,35*77
$GPGSV,2,2,06,31,31,099,45,32,25,056,49*76
$GPGLL,6247.33223,N,02249.35974,E,082446.00,A,A*60
$GPZDA,082446.00,11,11,2020,00,00*6A
$GPRMC,082447.00,A,6247.33220,N,02249.35967,E,0.015,,111120,,,A*7F
$GPVTG,,T,,M,0.015,N,0.027,K,A*22
$GPGGA,082447.00,6247.33220,N,02249.35967,E,1,06,1.64,53.3,M,20.7,M,,*60
$GPGSA,A,3,32,31,01,12,21,22,,,,,,,2.77,1.64,2.22*03
$GPGSV,2,1,07,01,52,170,25,12,14,008,52,21,28,158,33,22,76,157,34*73
$GPGSV,2,2,07,25,,,29,31,31,099,46,32,25,056,49*78
$GPGLL,6247.33220,N,02249.35967,E,082447.00,A,A*60
$GPZDA,082447.00,11,11,2020,00,00*6B
$GPRMC,082448.00,A,6247.33219,N,02249.35960,E,0.012,,111120,,,A*7A
$GPVTG,,T,,M,0.012,N,0.023,K,A*21
$GPGGA,082448.00,6247.33219,N,02249.35960,E,1,06,1.64,53.3,M,20.7,M,,*62
$GPGSA,A,3,32,31,01,12,21,22,,,,,,,2.76,1.64,2.22*02
$GPGSV,2,1,07,01,52,170,24,12,14,008,52,21,28,158,33,22,76,157,34*72
$GPGSV,2,2,07,25,,,26,31,31,099,46,32,25,056,49*77
$GPGLL,6247.33219,N,02249.35960,E,082448.00,A,A*62
$GPZDA,082448.00,11,11,2020,00,00*64
$GPRMC,082449.00,A,6247.33217,N,02249.35952,E,0.016,,111120,,,A*70
$GPVTG,,T,,M,0.016,N,0.029,K,A*2F
$GPGGA,082449.00,6247.33217,N,02249.35952,E,1,06,1.64,53.2,M,20.7,M,,*6D
$GPGSA,A,3,32,31,01,12,21,22,,,,,,,2.76,1.64,2.22*02
$GPGSV,2,1,06,01,52,170,22,12,14,008,52,21,28,158,33,22,76,157,34*75
$GPGSV,2,2,06,31,31,099,46,32,25,056,49*75
$GPGLL,6247.33217,N,02249.35952,E,082449.00,A,A*6C
$GPZDA,082449.00,11,11,2020,00,00*65
$GPRMC,082450.00,A,6247.33215,N,02249.35946,E,0.015,,111120,,,A*7C
$GPVTG,,T,,M,0.015,N,0.028,K,A*2D
$GPGGA,082450.00,6247.33215,N,02249.35946,E,1,06,1.64,53.1,M,20.7,M,,*61
$GPGSA,A,3,32,31,01,12,21,22,,,,,,,2.76,1.64,2.22*02
$GPGSV,2,1,08,01,52,170,22,12,14,008,52,18,,,32,21,28,158,33*46
$GPGSV,2,2,08,22,76,157,34,31,31,099,46,32,25,056,49,44,12,135,32*7B
$GPGLL,6247.33215,N,02249.35946,E,082450.00,A,A*63
$GPZDA,082450.00,11,11,2020,00,00*6D
$GPRMC,082451.00,A,6247.33213,N,02249.35938,E,0.014,,111120,,,A*73
$GPVTG,,T,,M,0.014,N,0.026,K,A*22
$GPGGA,082451.00,6247.33213,N,02249.35938,E,1,06,1.64,53.0,M,20.7,M,,*6E
$GPGSA,A,3,32,31,01,12,21,22,,,,,,,2.76,1.64,2.22*02
$GPGSV,2,1,07,01,52,170,23,08,,,32,12,14,008,52,21,28,158,32*48
$GPGSV,2,2,07,22,76,157,34,31,31,099,46,32,25,056,49*41
$GPGLL,6247.33213,N,02249.35938,E,082451.00,A,A*6D
$GPZDA,082451.00,11,11,2020,00,00*6C
$GPRMC,082452.00,A,6247.33212,N,02249.35932,E,0.009,,111120,,,A*77
$GPVTG,,T,,M,0.009,N,0.017,K,A*2C
$GPGGA,082452.00,6247.33212,N,02249.35932,E,1,06,1.64,52.9,M,20.7,M,,*6E
$GPGSA,A,3,32,31,01,12,21,22,,,,,,,2.76,1.64,2.22*02
$GPGSV,2,1,06,01,52,170,25,12,14,008,53,21,28,158,32,22,76,157,35*73
$GPGSV,2,2,06,31,31,099,46,32,25,056,49*75
$GPGLL,6247.33212,N,02249.35932,E,082452.00,A,A*65
$GPZDA,082452.00,11,11,2020,00,00*6F
$GPRMC,082453.00,A,6247.33209,N,02249.35926,E,0.010,,111120,,,A*71
$GPVTG,,T,,M,0.010,N,0.019,K,A*2A
$GPGGA,082453.00,6247.33209,N,02249.35926,E,1,06,1.64,52.7,M,20.7,M,,*6E
$GPGSA,A,3,32,31,01,12,21,22,,,,,,,2.76,1.64,2.22*02
$GPGSV,2,1,06,01,52,170,25,12,14,008,53,21,28,158,32,22,76,157,35*73
$GPGSV,2,2,06,31,31,099,46,32,25,056,49*75
$GPGLL,6247.33209,N,02249.35926,E,082453.00,A,A*6B
$GPZDA,082453.00,11,11,2020,00,00*6E
$GPRMC,082454.00,A,6247.33207,N,02249.35920,E,0.012,,111120,,,A*7C
$GPVTG,,T,,M,0.012,N,0.023,K,A*21
$GPGGA,082454.00,6247.33207,N,02249.35920,E,1,06,1.64,52.6,M,20.7,M,,*60
$GPGSA,A,3,32,31,01,12,21,22,,,,,,,2.76,1.64,2.22*02
$GPGSV,2,1,07,01,52,170,24,12,14,008,53,21,28,158,34,22,76,157,35*75
$GPGSV,2,2,07,25,,,35,31,31,099,46,32,25,056,49*75
$GPGLL,6247.33207,N,02249.35920,E,082454.00,A,A*64
$GPZDA,082454.00,11,11,2020,00,00*69
$GPRMC,082455.00,A,6247.33205,N,02249.35913,E,0.013,,111120,,,A*7E
$GPVTG,,T,,M,0.013,N,0.024,K,A*27
$GPGGA,082455.00,6247.33205,N,02249.35913,E,1,06,1.64,52.5,M,20.7,M,,*60
$GPGSA,A,3,32,31,01,12,21,22,,,,,,,2.76,1.64,2.22*02
$GPGSV,2,1,07,01,52,170,24,12,14,008,53,21,28,158,35,22,76,157,35*74
$GPGSV,2,2,07,25,,,34,31,31,099,46,32,25,056,49*74
$GPGLL,6247.33205,N,02249.35913,E,082455.00,A,A*67
$GPZDA,082455.00,11,11,2020,00,00*68
$GPRMC,082456.00,A,6247.33202,N,02249.35908,E,0.013,,111120,,,A*70
$GPVTG,,T,,M,0.013,N,0.024,K,A*27
$GPGGA,082456.00,6247.33202,N,02249.35908,E,1,06,1.64,52.4,M,20.7,M,,*6F
$GPGSA,A,3,32,31,01,12,21,22,,,,,,,2.76,1.64,2.22*02
$GPGSV,2,1,07,01,52,170,25,12,14,008,53,21,28,158,36,22,76,157,35*76
$GPGSV,2,2,07,25,,,33,31,31,099,46,32,25,056,49*73
$GPGLL,6247.33202,N,02249.35908,E,082456.00,A,A*69
$GPZDA,082456.00,11,11,2020,00,00*6B
$GPRMC,082457.00,A,6247.33199,N,02249.35903,E,0.013,,111120,,,A*7B
$GPVTG,,T,,M,0.013,N,0.025,K,A*26
$GPGGA,082457.00,6247.33199,N,02249.35903,E,1,06,1.64,52.3,M,20.7,M,,*63
$GPGSA,A,3,32,31,01,12,21,22,,,,,,,2.76,1.64,2.22*02
$GPGSV,2,1,07,01,52,170,25,12,14,008,53,21,28,158,36,22,76,157,35*76
$GPGSV,2,2,07,25,,,33,31,31,099,46,32,25,056,49*73
$GPGLL,6247.33199,N,02249.35903,E,082457.00,A,A*62
$GPZDA,082457.00,11,11,2020,00,00*6A
$GPRMC,082458.00,A,6247.33195,N,02249.35898,E,0.019,,111120,,,A*71
$GPVTG,,T,,M,0.019,N,0.034,K,A*2C
$GPGGA,082458.00,6247.33195,N,02249.35898,E,1,06,1.64,52.2,M,20.7,M,,*62
$GPGSA,A,3,32,31,01,12,21,22,,,,,,,2.76,1.64,2.22*02
$GPGSV,2,1,07,01,52,170,25,12,14,008,53,21,28,158,36,22,76,157,35*76
$GPGSV,2,2,07,25,,,33,31,31,099,46,32,25,056,49*73
$GPGLL,6247.33195,N,02249.35898,E,082458.00,A,A*62
$GPZDA,082458.00,11,11,2020,00,00*65
$GPRMC,082459.00,A,6247.33193,N,02249.35895,E,0.018,,111120,,,A*7A
$GPVTG,,T,,M,0.018,N,0.033,K,A*2A
$GPGGA,082459.00,6247.33193,N,02249.35895,E,1,06,1.64,52.1,M,20.7,M,,*6B
$GPGSA,A,3,32,31,01,12,21,22,,,,,,,2.76,1.64,2.22*02
$GPGSV,2,1,08,01,52,170,24,12,14,008,53,14,,,30,21,28,158,36*4A
$GPGSV,2,2,08,22,76,157,35,25,,,33,31,31,099,45,32,25,056,49*4B
$GPGLL,6247.33193,N,02249.35895,E,082459.00,A,A*68
$GPZDA,082459.00,11,11,2020,00,00*64
$GPRMC,082500.00,A,6247.33190,N,02249.35891,E,0.017,,111120,,,A*7F
$GPVTG,,T,,M,0.017,N,0.031,K,A*27
$GPGGA,082500.00,6247.33190,N,02249.35891,E,1,06,1.64,52.0,M,20.7,M,,*60
$GPGSA,A,3,32,31,01,12,21,22,,,,,,,2.76,1.64,2.22*02
$GPGSV,2,1,07,01,52,170,25,12,14,008,53,21,28,158,36,22,76,157,35*76
$GPGSV,2,2,07,25,,,33,31,31,099,45,32,25,056,49*70
$GPGLL,6247.33190,N,02249.35891,E,082500.00,A,A*62
$GPZDA,082500.00,11,11,2020,00,00*69
$GPRMC,082501.00,A,6247.33188,N,02249.35887,E,0.018,,111120,,,A*7F
$GPVTG,,T,,M,0.018,N,0.034,K,A*2D
$GPGGA,082501.00,6247.33188,N,02249.35887,E,1,06,1.64,51.9,M,20.7,M,,*65
$GPGSA,A,3,32,31,01,12,21,22,,,,,,,2.76,1.64,2.22*02
$GPGSV,2,1,07,01,52,170,26,12,14,008,53,21,28,158,36,22,76,157,35*75
$GPGSV,2,2,07,25,,,33,31,31,099,46,32,25,056,49*73
$GPGLL,6247.33188,N,02249.35887,E,082501.00,A,A*6D
$GPZDA,082501.00,11,11,2020,00,00*68
$GPRMC,082502.00,A,6247.33186,N,02249.35883,E,0.022,,111120,,,A*7F
$GPVTG,,T,,M,0.022,N,0.041,K,A*26
$GPGGA,082502.00,6247.33186,N,02249.35883,E,1,06,1.64,51.8,M,20.7,M,,*6D
$GPGSA,A,3,32,31,01,12,21,22,,,,,,,2.76,1.64,2.22*02
$GPGSV,2,1,07,01,52,170,28,12,14,008,53,21,28,158,36,22,76,157,35*7B
$GPGSV,2,2,07,25,,,33,31,31,099,46,32,25,056,49*73
$GPGLL,6247.33186,N,02249.35883,E,082502.00,A,A*64
$GPZDA,082502.00,11,11,2020,00,00*6B
$GPRMC,082503.00,A,6247.33184,N,02249.35879,E,0.024,,111120,,,A*7F
$GPVTG,,T,,M,0.024,N,0.044,K,A*25
$GPGGA,082503.00,6247.33184,N,02249.35879,E,1,06,1.64,51.7,M,20.7,M,,*64
$GPGSA,A,3,32,31,01,12,21,22,,,,,,,2.76,1.64,2.22*02
$GPGSV,2,1,08,01,52,170,29,12,14,008,53,19,,,29,21,28,158,36*42
$GPGSV,2,2,08,22,76,157,35,25,,,33,31,31,099,45,32,25,056,49*4B
$GPGLL,6247.33184,N,02249.35879,E,082503.00,A,A*62
$GPZDA,082503.00,11,11,2020,00,00*6A
$GPRMC,082504.00,A,6247.33182,N,02249.35877,E,0.020,,111120,,,A*74
$GPVTG,,T,,M,0.020,N,0.037,K,A*25
$GPGGA,082504.00,6247.33182,N,02249.35877,E,1,06,1.64,51.6,M,20.7,M,,*6A
$GPGSA,A,3,32,31,01,12,21,22,,,,,,,2.76,1.64,2.22*02
$GPGSV,2,1,08,01,52,170,29,12,14,008,53,19,,,18,21,28,158,36*40
$GPGSV,2,2,08,22,76,157,35,25,,,32,31,31,099,45,32,25,056,49*4A
$GPGLL,6247.33182,N,02249.35877,E,082504.00,A,A*6D
$GPZDA,082504.00,11,11,2020,00,00*6D
$GPRMC,082505.00,A,6247.33181,N,02249.35875,E,0.018,,111120,,,A*7F
$GPVTG,,T,,M,0.018,N,0.033,K,A*2A
$GPGGA,082505.00,6247.33181,N,02249.35875,E,1,06,1.64,51.6,M,20.7,M,,*6A
$GPGSA,A,3,32,31,01,12,21,22,,,,,,,2.76,1.64,2.22*02
$GPGSV,2,1,07,01,52,170,30,12,14,008,53,21,28,158,36,22,76,157,34*73
$GPGSV,2,2,07,25,,,32,31,31,099,45,32,25,056,49*71
$GPGLL,6247.33181,N,02249.35875,E,082505.00,A,A*6D
$GPZDA,082505.00,11,11,2020,00,00*6C
$GPRMC,082506.00,A,6247.33179,N,02249.35877,E,0.016,,111120,,,A*77
$GPVTG,,T,,M,0.016,N,0.031,K,A*26
$GPGGA,082506.00,6247.33179,N,02249.35877,E,1,06,1.64,51.4,M,20.7,M,,*6E
$GPGSA,A,3,32,31,01,12,21,22,,,,,,,2.76,1.64,2.22*02
$GPGSV,2,1,07,01,52,170,31,12,14,008,53,21,28,158,36,22,76,157,34*72
$GPGSV,2,2,07,25,,,31,31,31,099,45,32,25,056,49*72
$GPGLL,6247.33179,N,02249.35877,E,082506.00,A,A*6B
$GPZDA,082506.00,11,11,2020,00,00*6F
$GPRMC,082507.00,A,6247.33177,N,02249.35879,E,0.017,,111120,,,A*77
$GPVTG,,T,,M,0.017,N,0.031,K,A*27
$GPGGA,082507.00,6247.33177,N,02249.35879,E,1,06,1.64,51.3,M,20.7,M,,*68
$GPGSA,A,3,32,31,01,12,21,22,,,,,,,2.76,1.64,2.22*02
$GPGSV,2,1,07,01,52,170,32,12,14,008,53,21,28,158,37,22,76,157,34*70
$GPGSV,2,2,07,25,,,30,31,31,099,44,32,25,056,49*72
$GPGLL,6247.33177,N,02249.35879,E,082507.00,A,A*6A
$GPZDA,082507.00,11,11,2020,00,00*6E
$GPRMC,082508.00,A,6247.33176,N,02249.35883,E,0.015,,111120,,,A*7E
$GPVTG,,T,,M,0.015,N,0.027,K,A*22
$GPGGA,082508.00,6247.33176,N,02249.35883,E,1,06,1.64,51.1,M,20.7,M,,*61
$GPGSA,A,3,32,31,01,12,21,22,,,,,,,2.76,1.64,2.22*02
$GPGSV,2,1,07,01,52,170,32,12,14,008,52,21,28,158,37,22,76,157,34*71
$GPGSV,2,2,07,25,,,30,31,31,099,44,32,25,056,49*72
$GPGLL,6247.33176,N,02249.35883,E,082508.00,A,A*61
$GPZDA,082508.00,11,11,2020,00,00*61
$GPRMC,082509.00,A,6247.33177,N,02249.35889,E,0.013,,111120,,,A*72
$GPVTG,,T,,M,0.013,N,0.024,K,A*27
$GPGGA,082509.00,6247.33177,N,02249.35889,E,1,06,1.64,51.0,M,20.7,M,,*6A
$GPGSA,A,3,32,31,01,12,21,22,,,,,,,2.76,1.64,2.22*02
$GPGSV,2,1,07,01,52,170,33,12,14,008,52,21,28,158,38,22,76,157,34*7F
$GPGSV,2,2,07,25,,,29,31,31,099,44,32,25,056,49*7A
$GPGLL,6247.33177,N,02249.35889,E,082509.00,A,A*6B
$GPZDA,082509.00,11,11,2020,00,00*60
$GPRMC,082510.00,A,6247.33178,N,02249.35894,E,0.011,,111120,,,A*7B
$GPVTG,,T,,M,0.011,N,0.020,K,A*21
$GPGGA,082510.00,6247.33178,N,02249.35894,E,1,06,1.64,51.0,M,20.7,M,,*61
$GPGSA,A,3,32,31,01,12,21,22,,,,,,,2.76,1.64,2.22*02
$GPGSV,2,1,07,01,52,170,33,12,14,008,52,21,28,158,38,22,76,157,35*7E
$GPGSV,2,2,07,25,,,28,31,31,099,44,32,25,056,49*7B
$GPGLL,6247.33178,N,02249.35894,E,082510.00,A,A*60
$GPZDA,082510.00,11,11,2020,00,00*68
$GPRMC,082511.00,A,6247.33179,N,02249.35900,E,0.009,,111120,,,A*7E
$GPVTG,,T,,M,0.009,N,0.017,K,A*2C
$GPGGA,082511.00,6247.33179,N,02249.35900,E,1,06,1.64,51.0,M,20.7,M,,*6D
$GPGSA,A,3,32,31,01,12,21,22,,,,,,,2.76,1.64,2.22*02
$GPGSV,2,1,08,01,52,170,33,05,,,33,12,14,008,52,21,28,158,38*40
$GPGSV,2,2,08,22,76,157,36,25,,,28,31,31,099,43,32,25,056,49*44
$GPGLL,6247.33179,N,02249.35900,E,082511.00,A,A*6C
$GPZDA,082511.00,11,11,2020,00,00*69
$GPRMC,082512.00,A,6247.33179,N,02249.35907,E,0.009,,111120,,,A*7A
$GPVTG,,T,,M,0.009,N,0.017,K,A*2C
$GPGGA,082512.00,6247.33179,N,02249.35907,E,1,06,1.64,50.9,M,20.7,M,,*61
$GPGSA,A,3,32,31,01,12,21,22,,,,,,,2.76,1.64,2.22*02
$GPGSV,2,1,07,01,52,170,33,12,14,008,52,21,28,158,38,22,76,157,36*7D
$GPGSV,2,2,07,25,,,28,31,31,099,43,32,25,056,49*7C
$GPGLL,6247.33179,N,02249.35907,E,082512.00,A,A*68
$GPZDA,082512.00,11,11,2020,00,00*6A
$GPRMC,082513.00,A,6247.33180,N,02249.35914,E,0.008,,111120,,,A*7E
$GPVTG,,T,,M,0.008,N,0.015,K,A*2F
$GPGGA,082513.00,6247.33180,N,02249.35914,E,1,06,1.64,50.7,M,20.7,M,,*6A
$GPGSA,A,3,32,31,01,12,21,22,,,,,,,2.76,1.64,2.22*02
$GPGSV,2,1,07,01,52,170,33,12,14,008,52,21,28,158,38,22,76,157,36*7D
$GPGSV,2,2,07,25,,,28,31,31,099,43,32,25,056,49*7C
$GPGLL,6247.33180,N,02249.35914,E,082513.00,A,A*6D
$GPZDA,082513.00,11,11,2020,00,00*6B
$GPRMC,082514.00,A,6247.33186,N,02249.35927,E,0.006,,111120,,,A*71
$GPVTG,,T,,M,0.006,N,0.012,K,A*26
$GPGGA,082514.00,6247.33186,N,02249.35927,E,1,06,1.64,50.9,M,20.7,M,,*65
$GPGSA,A,3,32,31,01,12,21,22,,,,,,,2.75,1.64,2.21*02
$GPGSV,2,1,07,01,52,170,32,12,14,008,52,21,28,158,39,22,76,157,36*7D
$GPGSV,2,2,07,25,,,27,31,31,099,43,32,25,056,49*73
$GPGLL,6247.33186,N,02249.35927,E,082514.00,A,A*6C
$GPZDA,082514.00,11,11,2020,00,00*6C
$GPRMC,082515.00,A,6247.33187,N,02249.35931,E,0.006,,111120,,,A*76
$GPVTG,,T,,M,0.006,N,0.011,K,A*25
$GPGGA,082515.00,6247.33187,N,02249.35931,E,1,06,1.64,51.0,M,20.7,M,,*6A
$GPGSA,A,3,32,31,01,12,21,22,,,,,,,2.75,1.64,2.21*02
$GPGSV,2,1,08,01,51,170,31,09,,,33,12,14,008,52,21,28,158,38*4D
$GPGSV,2,2,08,22,76,157,35,25,,,26,31,31,099,43,32,25,056,49*49
$GPGLL,6247.33187,N,02249.35931,E,082515.00,A,A*6B
$GPZDA,082515.00,11,11,2020,00,00*6D
$GPRMC,082516.00,A,6247.33192,N,02249.35941,E,0.005,,111120,,,A*75
$GPVTG,,T,,M,0.005,N,0.010,K,A*27
$GPGGA,082516.00,6247.33192,N,02249.35941,E,1,06,1.64,51.2,M,20.7,M,,*68
$GPGSA,A,3,32,31,01,12,21,22,,,,,,,2.75,1.64,2.21*02
$GPGSV,2,1,07,01,51,170,31,12,14,008,52,21,28,158,39,22,76,157,35*7E
$GPGSV,2,2,07,25,,,27,31,31,099,43,32,25,056,49*73
$GPGLL,6247.33192,N,02249.35941,E,082516.00,A,A*6B
$GPZDA,082516.00,11,11,2020,00,00*6E
$GPRMC,082517.00,A,6247.33193,N,02249.35945,E,0.006,,111120,,,A*72
$GPVTG,,T,,M,0.006,N,0.011,K,A*25
$GPGGA,082517.00,6247.33193,N,02249.35945,E,1,06,1.64,51.2,M,20.7,M,,*6C
$GPGSA,A,3,32,31,01,12,21,22,,,,,,,2.75,1.64,2.21*02
$GPGSV,2,1,07,01,51,170,32,12,14,008,53,21,28,158,39,22,76,157,35*7C
$GPGSV,2,2,07,25,,,27,31,31,099,44,32,25,056,49*74
$GPGLL,6247.33193,N,02249.35945,E,082517.00,A,A*6F
$GPZDA,082517.00,11,11,2020,00,00*6F
$GPRMC,082518.00,A,6247.33200,N,02249.35959,E,0.005,,111120,,,A*7A
$GPVTG,,T,,M,0.005,N,0.009,K,A*2F
$GPGGA,082518.00,6247.33200,N,02249.35959,E,1,06,1.64,51.5,M,20.7,M,,*60
$GPGSA,A,3,32,31,01,12,21,22,,,,,,,2.75,1.64,2.21*02
$GPGSV,3,1,09,01,51,170,32,10,,,33,12,14,008,53,15,,,33*7D
$GPGSV,3,2,09,21,28,158,40,22,76,157,35,25,,,26,31,31,099,44*47
$GPGSV,3,3,09,32,25,056,49*48
$GPGLL,6247.33200,N,02249.35959,E,082518.00,A,A*64
$GPZDA,082518.00,11,11,2020,00,00*60
$GPRMC,082519.00,A,6247.33204,N,02249.35971,E,0.004,,111120,,,A*74
$GPVTG,,T,,M,0.004,N,0.007,K,A*20
$GPGGA,082519.00,6247.33204,N,02249.35971,E,1,06,1.64,51.7,M,20.7,M,,*6D
$GPGSA,A,3,32,31,01,12,21,22,,,,,,,2.75,1.64,2.21*02
$GPGSV,2,1,07,01,51,170,33,12,14,008,53,21,28,158,40,22,76,157,35*73
$GPGSV,2,2,07,25,,,25,31,31,099,44,32,25,056,49*76
$GPGLL,6247.33204,N,02249.35971,E,082519.00,A,A*6B
$GPZDA,082519.00,11,11,2020,00,00*61
$GPRMC,082520.00,A,6247.33213,N,02249.35989,E,0.005,,111120,,,A*7E
$GPVTG,,T,,M,0.005,N,0.010,K,A*27
$GPGGA,082520.00,6247.33213,N,02249.35989,E,1,06,1.64,52.0,M,20.7,M,,*62
$GPGSA,A,3,32,31,01,12,21,22,,,,,,,2.75,1.64,2.21*02
$GPGSV,3,1,09,01,51,170,33,12,14,008,53,15,,,33,16,,,33*7A
$GPGSV,3,2,09,21,28,158,41,22,76,157,35,25,,,25,31,31,099,44*45
$GPGSV,3,3,09,32,25,056,48*49
$GPGLL,6247.33213,N,02249.35989,E,082520.00,A,A*60
$GPZDA,082520.00,11,11,2020,00,00*6B
$GPRMC,082521.00,A,6247.33223,N,02249.36008,E,0.006,,111120,,,A*7C
$GPVTG,,T,,M,0.006,N,0.010,K,A*24
$GPGGA,082521.00,6247.33223,N,02249.36008,E,1,06,1.64,52.4,M,20.7,M,,*67
$GPGSA,A,3,32,31,01,12,21,22,,,,,,,2.75,1.64,2.21*02
$GPGSV,2,1,07,01,51,170,33,12,14,008,53,21,28,158,41,22,76,157,35*72
$GPGSV,2,2,07,25,,,25,31,31,099,44,32,25,056,48*77
$GPGLL,6247.33223,N,02249.36008,E,082521.00,A,A*61
$GPZDA,082521.00,11,11,2020,00,00*6A
$GPRMC,082522.00,A,6247.33232,N,02249.36027,E,0.004,,111120,,,A*70
$GPVTG,,T,,M,0.004,N,0.007,K,A*20
$GPGGA,082522.00,6247.33232,N,02249.36027,E,1,06,1.64,52.7,M,20.7,M,,*6A
$GPGSA,A,3,32,31,01,12,21,22,,,,,,,2.75,1.64,2.21*02
$GPGSV,2,1,07,01,51,170,34,12,14,008,53,21,28,158,41,22,76,157,36*76
$GPGSV,2,2,07,25,,,26,31,31,099,44,32,25,056,48*74
$GPGLL,6247.33232,N,02249.36027,E,082522.00,A,A*6F
$GPZDA,082522.00,11,11,2020,00,00*69
$GPRMC,082523.00,A,6247.33241,N,02249.36043,E,0.003,,111120,,,A*70
$GPVTG,,T,,M,0.003,N,0.006,K,A*26
$GPGGA,082523.00,6247.33241,N,02249.36043,E,1,06,1.64,53.1,M,20.7,M,,*6A
$GPGSA,A,3,32,31,01,12,21,22,,,,,,,2.75,1.64,2.21*02
$GPGSV,2,1,07,01,51,170,33,12,14,008,53,21,28,158,41,22,76,157,36*71
$GPGSV,2,2,07,25,,,27,31,31,099,44,32,25,056,48*75
$GPGLL,6247.33241,N,02249.36043,E,082523.00,A,A*68
$GPZDA,082523.00,11,11,2020,00,00*68
$GPRMC,082524.00,A,6247.33249,N,02249.36059,E,0.002,,111120,,,A*75
$GPVTG,,T,,M,0.002,N,0.003,K,A*22
$GPGGA,082524.00,6247.33249,N,02249.36059,E,1,06,1.64,53.4,M,20.7,M,,*6B
$GPGSA,A,3,32,31,01,12,21,22,,,,,,,2.75,1.64,2.21*02
$GPGSV,2,1,07,01,51,170,33,12,14,008,52,21,28,158,41,22,76,157,36*70
$GPGSV,2,2,07,25,,,27,31,31,099,44,32,25,056,48*75
$GPGLL,6247.33249,N,02249.36059,E,082524.00,A,A*6C
$GPZDA,082524.00,11,11,2020,00,00*6F
$GPRMC,082525.00,A,6247.33257,N,02249.36073,E,0.002,,111120,,,A*73
$GPVTG,,T,,M,0.002,N,0.003,K,A*22
$GPGGA,082525.00,6247.33257,N,02249.36073,E,1,06,1.64,53.7,M,20.7,M,,*6E
$GPGSA,A,3,32,31,01,12,21,22,,,,,,,2.75,1.64,2.21*02
$GPGSV,2,1,07,01,51,170,33,12,14,008,52,21,28,158,41,22,76,157,36*70
$GPGSV,2,2,07,25,,,29,31,31,099,44,32,25,056,48*7B
$GPGLL,6247.33257,N,02249.36073,E,082525.00,A,A*6A
$GPZDA,082525.00,11,11,2020,00,00*6E
$GPRMC,082526.00,A,6247.33265,N,02249.36087,E,0.002,,111120,,,A*7A
$GPVTG,,T,,M,0.002,N,0.004,K,A*25
$GPGGA,082526.00,6247.33265,N,02249.36087,E,1,06,1.64,53.9,M,20.7,M,,*69
$GPGSA,A,3,32,31,01,12,21,22,,,,,,,2.75,1.64,2.21*02
$GPGSV,2,1,07,01,51,170,34,12,14,008,52,21,28,158,41,22,76,157,36*77
$GPGSV,2,2,07,25,,,29,31,31,099,45,32,25,056,48*7A
$GPGLL,6247.33265,N,02249.36087,E,082526.00,A,A*63
$GPZDA,082526.00,11,11,2020,00,00*6D
$GPRMC,082527.00,A,6247.33273,N,02249.36098,E,0.004,,111120,,,A*74
$GPVTG,,T,,M,0.004,N,0.007,K,A*20
$GPGGA,082527.00,6247.33273,N,02249.36098,E,1,06,1.64,54.1,M,20.7,M,,*6E
$GPGSA,A,3,32,31,01,12,21,22,,,,,,,2.75,1.64,2.21*02
$GPGSV,3,1,09,01,51,170,34,08,,,29,12,14,008,53,13,,,32*7E
$GPGSV,3,2,09,21,28,158,41,22,76,157,36,25,07,042,30,31,31,099,45*72
$GPGSV,3,3,09,32,25,056,48*49
$GPGLL,6247.33273,N,02249.36098,E,082527.00,A,A*6B
$GPZDA,082527.00,11,11,2020,00,00*6C
$GPRMC,082528.00,A,6247.33280,N,02249.36108,E,0.004,,111120,,,A*7F
$GPVTG,,T,,M,0.004,N,0.008,K,A*2F
$GPGGA,082528.00,6247.33280,N,02249.36108,E,1,07,1.63,54.4,M,20.7,M,,*66
$GPGSA,A,3,32,31,25,01,12,21,22,,,,,,2.63,1.63,2.07*01
$GPGSV,2,1,08,01,51,170,34,05,,,32,12,14,008,53,21,28,158,41*4A
$GPGSV,2,2,08,22,76,157,36,25,07,042,30,31,31,099,45,32,25,056,48*7B
$GPGLL,6247.33280,N,02249.36108,E,082528.00,A,A*60
$GPZDA,082528.00,11,11,2020,00,00*63
$GPRMC,082529.00,A,6247.33287,N,02249.36117,E,0.004,,111120,,,A*77
$GPVTG,,T,,M,0.004,N,0.007,K,A*20
$GPGGA,082529.00,6247.33287,N,02249.36117,E,1,07,1.63,54.6,M,20.7,M,,*6C
$GPGSA,A,3,32,31,25,01,12,21,22,,,,,,2.63,1.63,2.07*01
$GPGSV,2,1,07,01,51,170,34,12,14,007,53,21,28,158,41,22,76,157,37*78
$GPGSV,2,2,07,25,07,042,30,31,31,099,45,32,25,056,48*43
$GPGLL,6247.33287,N,02249.36117,E,082529.00,A,A*68
$GPZDA,082529.00,11,11,2020,00,00*62
$GPRMC,082530.00,A,6247.33293,N,02249.36126,E,0.005,,111120,,,A*79
$GPVTG,,T,,M,0.005,N,0.008,K,A*2E
$GPGGA,082530.00,6247.33293,N,02249.36126,E,1,07,1.63,54.8,M,20.7,M,,*6D
$GPGSA,A,3,32,31,25,01,12,21,22,,,,,,2.63,1.63,2.07*01
$GPGSV,2,1,07,01,51,170,34,12,14,007,53,21,28,158,42,22,76,157,37*7B
$GPGSV,2,2,07,25,07,042,30,31,31,099,45,32,25,056,48*43
$GPGLL,6247.33293,N,02249.36126,E,082530.00,A,A*67
$GPZDA,082530.00,11,11,2020,00,00*6A
$GPRMC,082531.00,A,6247.33299,N,02249.36135,E,0.008,,111120,,,A*7D
$GPVTG,,T,,M,0.008,N,0.016,K,A*2C
$GPGGA,082531.00,6247.33299,N,02249.36135,E,1,07,1.63,55.0,M,20.7,M,,*6D
$GPGSA,A,3,32,31,25,01,12,21,22,,,,,,2.63,1.63,2.07*01
$GPGSV,3,1,10,01,51,170,34,03,,,33,08,,,33,10,,,33*44
$GPGSV,3,2,10,12,14,007,53,21,28,158,42,22,76,157,37,25,07,042,29*76
$GPGSV,3,3,10,31,31,099,45,32,25,056,48*70
$GPGLL,6247.33299,N,02249.36135,E,082531.00,A,A*6E
$GPZDA,082531.00,11,11,2020,00,00*6B
$GPRMC,082532.00,A,6247.33306,N,02249.36145,E,0.008,,111120,,,A*7E
$GPVTG,,T,,M,0.008,N,0.014,K,A*2E
$GPGGA,082532.00,6247.33306,N,02249.36145,E,1,07,1.63,55.2,M,20.7,M,,*6C
$GPGSA,A,3,32,31,25,01,12,21,22,,,,,,2.63,1.63,2.07*01
$GPGSV,2,1,07,01,51,170,34,12,14,007,53,21,28,158,42,22,76,157,37*7B
$GPGSV,2,2,07,25,07,042,28,31,31,099,45,32,25,056,48*4A
$GPGLL,6247.33306,N,02249.36145,E,082532.00,A,A*6D
$GPZDA,082532.00,11,11,2020,00,00*68
$GPRMC,082533.00,A,6247.33311,N,02249.36152,E,0.005,,111120,,,A*72
$GPVTG,,T,,M,0.005,N,0.010,K,A*27
$GPGGA,082533.00,6247.33311,N,02249.36152,E,1,07,1.63,55.4,M,20.7,M,,*6B
$GPGSA,A,3,32,31,25,01,12,21,22,,,,,,2.63,1.63,2.07*01
$GPGSV,2,1,07,01,51,170,34,12,14,007,53,21,28,158,42,22,76,157,37*7B
$GPGSV,2,2,07,25,07,042,26,31,31,099,45,32,25,056,48*44
$GPGLL,6247.33311,N,02249.36152,E,082533.00,A,A*6C
$GPZDA,082533.00,11,11,2020,00,00*69
$GPRMC,082534.00,A,6247.33316,N,02249.36158,E,0.005,,111120,,,A*78
$GPVTG,,T,,M,0.005,N,0.009,K,A*2F
$GPGGA,082534.00,6247.33316,N,02249.36158,E,1,07,1.63,55.5,M,20.7,M,,*60
$GPGSA,A,3,32,31,25,01,12,21,22,,,,,,2.63,1.63,2.06*00
$GPGSV,2,1,07,01,51,170,34,12,14,007,53,21,28,158,41,22,76,157,36*79
$GPGSV,2,2,07,25,07,042,26,31,31,099,45,32,25,056,48*44
$GPGLL,6247.33316,N,02249.36158,E,082534.00,A,A*66
$GPZDA,082534.00,11,11,2020,00,00*6E
$GPRMC,082535.00,A,6247.33319,N,02249.36161,E,0.007,,111120,,,A*7E
$GPVTG,,T,,M,0.007,N,0.012,K,A*27
$GPGGA,082535.00,6247.33319,N,02249.36161,E,1,07,1.63,55.7,M,20.7,M,,*66
$GPGSA,A,3,32,31,25,01,12,21,22,,,,,,2.63,1.63,2.06*00
$GPGSV,2,1,07,01,51,170,34,12,14,007,53,21,28,158,41,22,76,157,36*79
$GPGSV,2,2,07,25,07,042,27,31,31,099,45,32,25,056,48*45
$GPGLL,6247.33319,N,02249.36161,E,082535.00,A,A*62
$GPZDA,082535.00,11,11,2020,00,00*6F
$GPRMC,082536.00,A,6247.33322,N,02249.36163,E,0.007,,111120,,,A*77
$GPVTG,,T,,M,0.007,N,0.013,K,A*26
$GPGGA,082536.00,6247.33322,N,02249.36163,E,1,07,1.63,55.8,M,20.7,M,,*60
$GPGSA,A,3,32,31,25,01,12,21,22,,,,,,2.63,1.63,2.06*00
$GPGSV,2,1,07,01,51,170,34,12,14,007,53,21,28,158,41,22,76,157,36*79
$GPGSV,2,2,07,25,07,042,27,31,31,099,45,32,25,056,49*44
$GPGLL,6247.33322,N,02249.36163,E,082536.00,A,A*6B
$GPZDA,082536.00,11,11,2020,00,00*6C
$GPRMC,082537.00,A,6247.33322,N,02249.36161,E,0.004,,111120,,,A*77
$GPVTG,,T,,M,0.004,N,0.008,K,A*2F
$GPGGA,082537.00,6247.33322,N,02249.36161,E,1,07,1.63,55.8,M,20.7,M,,*63
$GPGSA,A,3,32,31,25,01,12,21,22,,,,,,2.63,1.63,2.06*00
$GPGSV,2,1,07,01,51,170,34,12,14,007,53,21,28,158,40,22,76,157,37*79
$GPGSV,2,2,07,25,07,042,28,31,31,099,45,32,25,056,49*4B
$GPGLL,6247.33322,N,02249.36161,E,082537.00,A,A*68
$GPZDA,082537.00,11,11,2020,00,00*6D
$GPRMC,082538.00,A,6247.33322,N,02249.36159,E,0.005,,111120,,,A*72
$GPVTG,,T,,M,0.005,N,0.009,K,A*2F
$GPGGA,082538.00,6247.33322,N,02249.36159,E,1,07,1.63,55.8,M,20.7,M,,*67
$GPGSA,A,3,32,31,25,01,12,21,22,,,,,,2.63,1.63,2.06*00
$GPGSV,2,1,07,01,51,170,34,12,14,007,53,21,27,158,40,22,76,157,37*76
$GPGSV,2,2,07,25,07,042,29,31,31,099,45,32,25,056,49*4A
$GPGLL,6247.33322,N,02249.36159,E,082538.00,A,A*6C
$GPZDA,082538.00,11,11,2020,00,00*62
$GPRMC,082539.00,A,6247.33323,N,02249.36157,E,0.010,,111120,,,A*78
$GPVTG,,T,,M,0.010,N,0.018,K,A*2B
$GPGGA,082539.00,6247.33323,N,02249.36157,E,1,07,1.63,55.9,M,20.7,M,,*68
$GPGSA,A,3,32,31,25,01,12,21,22,,,,,,2.63,1.63,2.06*00
$GPGSV,2,1,07,01,51,170,34,12,14,007,53,21,27,158,41,22,76,155,37*75
$GPGSV,2,2,07,25,07,042,29,31,31,099,45,32,25,056,49*4A
$GPGLL,6247.33323,N,02249.36157,E,082539.00,A,A*62
$GPZDA,082539.00,11,11,2020,00,00*63
$GPRMC,082540.00,A,6247.33324,N,02249.36156,E,0.010,,111120,,,A*70
$GPVTG,,T,,M,0.010,N,0.018,K,A*2B
$GPGGA,082540.00,6247.33324,N,02249.36156,E,1,07,1.63,56.0,M,20.7,M,,*6A
$GPGSA,A,3,32,31,25,01,12,21,22,,,,,,2.63,1.63,2.06*00
$GPGSV,3,1,10,01,51,170,34,08,,,33,12,14,007,53,14,,,33*74
$GPGSV,3,2,10,17,,,33,21,27,158,41,22,76,155,37,25,07,042,28*48
$GPGSV,3,3,10,31,31,099,45,32,25,056,49*71
$GPGLL,6247.33324,N,02249.36156,E,082540.00,A,A*6A
$GPZDA,082540.00,11,11,2020,00,00*6D
$GPRMC,082541.00,A,6247.33326,N,02249.36154,E,0.009,,111120,,,A*79
$GPVTG,,T,,M,0.009,N,0.017,K,A*2C
$GPGGA,082541.00,6247.33326,N,02249.36154,E,1,07,1.63,56.1,M,20.7,M,,*6A
$GPGSA,A,3,32,31,25,01,12,21,22,,,,,,2.63,1.63,2.06*00
$GPGSV,2,1,08,01,51,170,35,08,,,28,12,14,007,53,21,27,158,41*4D
$GPGSV,2,2,08,22,76,155,37,25,07,042,27,31,31,099,45,32,25,056,49*7F
$GPGLL,6247.33326,N,02249.36154,E,082541.00,A,A*6B
$GPZDA,082541.00,11,11,2020,00,00*6C
$GPRMC,082542.00,A,6247.33327,N,02249.36153,E,0.008,,111120,,,A*7D
$GPVTG,,T,,M,0.008,N,0.015,K,A*2F
$GPGGA,082542.00,6247.33327,N,02249.36153,E,1,07,1.63,56.3,M,20.7,M,,*6D
$GPGSA,A,3,32,31,25,01,12,21,22,,,,,,2.63,1.63,2.06*00
$GPGSV,2,1,07,01,51,170,35,12,14,007,53,21,27,158,41,22,76,155,37*74
$GPGSV,2,2,07,25,07,042,26,31,31,099,45,32,25,056,49*45
$GPGLL,6247.33327,N,02249.36153,E,082542.00,A,A*6E
$GPZDA,082542.00,11,11,2020,00,00*6F
$GPRMC,082543.00,A,6247.33329,N,02249.36152,E,0.006,,111120,,,A*7D
$GPVTG,,T,,M,0.006,N,0.012,K,A*26
$GPGGA,082543.00,6247.33329,N,02249.36152,E,1,07,1.63,56.4,M,20.7,M,,*64
$GPGSA,A,3,32,31,25,01,12,21,22,,,,,,2.63,1.63,2.06*00
$GPGSV,2,1,07,01,51,170,35,12,14,007,53,21,27,158,41,22,76,155,37*74
$GPGSV,2,2,07,25,07,042,25,31,31,099,44,32,25,056,50*4F
$GPGLL,6247.33329,N,02249.36152,E,082543.00,A,A*60
$GPZDA,082543.00,11,11,2020,00,00*6E
$GPRMC,082544.00,A,6247.33330,N,02249.36151,E,0.008,,111120,,,A*7F
$GPVTG,,T,,M,0.008,N,0.014,K,A*2E
$GPGGA,082544.00,6247.33330,N,02249.36151,E,1,07,1.63,56.6,M,20.7,M,,*6A
$GPGSA,A,3,32,31,25,01,12,21,22,,,,,,2.63,1.63,2.06*00
$GPGSV,2,1,07,01,51,170,35,12,14,007,53,21,27,158,41,22,76,155,37*74
$GPGSV,2,2,07,25,07,042,23,31,31,099,45,32,25,056,50*48
$GPGLL,6247.33330,N,02249.36151,E,082544.00,A,A*6C
$GPZDA,082544.00,11,11,2020,00,00*69
$GPRMC,082545.00,A,6247.33332,N,02249.36148,E,0.008,,111120,,,A*74
$GPVTG,,T,,M,0.008,N,0.014,K,A*2E
$GPGGA,082545.00,6247.33332,N,02249.36148,E,1,07,1.63,56.7,M,20.7,M,,*60
$GPGSA,A,3,32,31,25,01,12,21,22,,,,,,2.63,1.63,2.06*00
$GPGSV,2,1,07,01,51,170,35,12,14,007,53,21,27,158,41,22,76,155,37*74
$GPGSV,2,2,07,25,07,042,22,31,31,099,45,32,25,056,50*49
$GPGLL,6247.33332,N,02249.36148,E,082545.00,A,A*67
$GPZDA,082545.00,11,11,2020,00,00*68
$GPRMC,082546.00,A,6247.33333,N,02249.36144,E,0.011,,111120,,,A*72
$GPVTG,,T,,M,0.011,N,0.020,K,A*21
$GPGGA,082546.00,6247.33333,N,02249.36144,E,1,07,1.63,56.8,M,20.7,M,,*61
$GPGSA,A,3,32,31,25,01,12,21,22,,,,,,2.63,1.63,2.06*00
